country,namePlant,latitude,longitude,primaryfuel
Afghanistan,Kajaki Hydroelectric Power Plant Afghanistan,32.322,65.119,hydro
Afghanistan,Kandahar DOG,31.67,65.795,solar
Afghanistan,Kandahar JOL,31.623,65.792,solar
Afghanistan,Mahipar Hydroelectric Power Plant Afghanistan,34.556,69.4787,hydro
Afghanistan,Naghlu Dam Hydroelectric Power Plant Afghanistan,34.641,69.717,hydro
Afghanistan,Nangarhar (Darunta) Hydroelectric Power Plant Afghanistan,34.4847,70.3633,hydro
Afghanistan,Northwest Kabul Power Plant Afghanistan,34.5638,69.1134,gas
Afghanistan,Pul-e-Khumri Hydroelectric Power Plant Afghanistan,35.9416,68.71,hydro
Afghanistan,Sarobi Dam Hydroelectric Power Plant Afghanistan,34.5865,69.7757,hydro
Albania,Vlora,40.4874,19.434,other
Albania,Vau i Dijes,42.0137,19.6359,hydro
Albania,Shkopet,41.6796,19.8305,hydro
Albania,Ulez,41.6796,19.8936,hydro
Albania,Koman,42.1033,19.8224,hydro
Albania,Fierza,42.2514,20.0431,hydro
Albania,Bistrica 1,39.9116,20.1047,hydro
Albania,Lanabregas,41.3428,19.8964,hydro
Algeria,Ras Djinet,36.8509,3.6983,gas
Algeria,Oued el Ma,35.68,5.9861,solar
Algeria,Oued El Kebrit,35.919,7.87,solar
Algeria,Naâma,33.274,-0.372,solar
Algeria,Msila 1,35.7071,4.4804,gas
Algeria,Marsat,35.8,-0.1924,gas
Algeria,Labreg,34.5056,6.9848,gas
Algeria,Labiodh Sidi Cheikh,32.945,0.555,solar
Algeria,Koudiet Eddraouch,36.885,8.0778,gas
Algeria,Kahrama IPP,35.8064,-0.2476,gas
Algeria,Ras el Oued,36.01,5.035,solar
Algeria,Marsat TG,35.8,-0.1924,gas
Algeria,Ravin Blanc,35.7095,-0.6319,gas
Algeria,Tiaret,35.3396,1.3562,gas
Algeria,Relizane,35.7835,0.5407,gas
Algeria,SKB IPP,36.1399,2.9296,gas
Algeria,SKS IPP SNC Lavalin,36.8789,6.9366,gas
Algeria,SPP1 Thermal,32.9475,3.238,gas
Algeria,Skikda,36.88,6.935,gas
Algeria,Tamanrasset,22.849,5.45,solar
Algeria,Terga,35.4608,-1.2295,gas
Algeria,Jijel,36.8139,5.876,gas
Algeria,Tilghemt 1,33.1319,3.348,gas
Algeria,Tilghemt 2,33.1377,3.3678,gas
Algeria,Timimoun,29.22,0.223,solar
Algeria,Tindouf,27.752,-8.154,solar
Algeria,Zaouiet Kounta,27.241,-0.174,solar
Algeria,Reggane,26.768,0.137,solar
Algeria,In Salah,27.183,2.504,solar
Algeria,Télagh,34.692,-0.601,solar
Algeria,Hauts Plateaux Est,35.68,5.9861,solar
Algeria,Adrar,27.908,-0.317,solar
Algeria,Ighil Emda,36.4739,5.2719,hydro
Algeria,Ain Azel,35.88,5.475,solar
Algeria,Ain Djasser,35.8665,6.0262,gas
Algeria,Ain Sekhouna,34.532,0.804,solar
Algeria,Ain el Ibel I,34.346,3.164,solar
Algeria,Ain el Ibel II,34.342,3.169,solar
Algeria,Ain el Melh,34.861,4.204,solar
Algeria,Algerie Sud-Ouest,27.908,-0.317,solar
Algeria,Annaba,36.8924,7.7634,gas
Algeria,Aoulef,26.9989,1.3351,solar
Algeria,Bir Rebaa,31.285,8.565,solar
Algeria,Boufarik 1,36.5914,2.9223,gas
Algeria,Arbaa,36.5988,3.1375,gas
Algeria,Boutelilis,35.5658,-0.9386,gas
Algeria,Hauts Plateaux Centre,34.342,3.169,solar
Algeria,Hassi R'mel ISCC,33.123,3.356,solar
Algeria,Hassi Messoud Ouest,31.8065,5.9924,gas
Algeria,Boufarik 2,36.596,2.878,gas
Algeria,Hassi Messoud,31.6703,6.0531,gas
Algeria,Hassi Messaoud Mobile,31.6703,6.0531,gas
Algeria,Hassi Messoud Nord 2,31.7877,6.0517,gas
Algeria,Hadjret Ennous,36.5767,2.0797,gas
Algeria,HPC Ouargla,32.602,5.834,solar
Algeria,F'Krina,35.7666,7.3619,gas
Algeria,El Kheneg,33.727,2.811,solar
Algeria,Chelghoum El Aïd,36.225,6.11,solar
Algeria,Hamma 2,36.7489,3.0823,gas
Angola,Luanda Refinery,-8.8383,13.2344,oil
Angola,Xitoto,-15.3333,15.0,oil
Angola,Rio Luachimo,-7.3,20.85,hydro
Angola,Namibe,-15.1961,12.1522,gas
Angola,Matala,-14.7333,15.0333,hydro
Angola,Malongo,-5.55,12.2,oil
Angola,Luanda Diesel,-8.8383,13.2344,oil
Angola,Lobito,-12.37,13.57,gas
Angola,Huambo,-12.76,15.75,oil
Angola,Cazenga,-8.8383,13.2344,gas
Angola,Capanda,-9.7955,15.4672,hydro
Angola,Cambambe,-9.7523,14.4809,hydro
Angola,Biopio (hydro),-12.4706,13.7319,hydro
Angola,Biopio,-12.4706,13.7319,oil
Antarctica,McMurdo Station Generator,-77.847,166.6605,oil
Antarctica,Ross Island,-77.8428,166.7271,wind
Argentina,LA PLATA COGENERACION,-34.889,-57.9206,gas
Argentina,LA CRUZ,-29.1762,-56.6394,oil
Argentina,JULIAN  ROMERO,-38.8367,-68.038,hydro
Argentina,Iglesia-Guañizuil,-30.34,-69.27,solar
Argentina,ITUZAINGO,-27.5785,-56.6726,oil
Argentina,GUILLERMO CESPEDES,-39.56,-65.6817,hydro
Argentina,ISLA VERDE,-33.2422,-62.3946,oil
Argentina,H. PICHI PICUN LEUFU,-40.012,-69.9918,hydro
Argentina,LA RIOJA,-29.3823,-66.8325,oil
Argentina,GOYA (ELECTROPATAGONIA SA),-29.1388,-59.2277,gas
Argentina,ITA IBATE,-27.4252,-57.3341,oil
Argentina,LA TABLADA,-27.4184,-55.9097,gas
Argentina,LOS MOLINOS I,-31.838,-64.4452,hydro
Argentina,LAS MADERAS,-24.4438,-65.2203,hydro
Argentina,LOS CORONELES (EX 25  DE MAYO),-34.6,-68.5285,hydro
Argentina,GOYA,-29.1388,-59.2277,oil
Argentina,LOS MOLINOS II,-31.838,-64.4452,hydro
Argentina,LOS QUIROGA,-27.6509,-64.3618,hydro
Argentina,LOS REYUNOS,-34.6028,-68.6383,hydro
Argentina,MERCEDES,-29.1808,-58.0793,oil
Argentina,LUJAN DE CUYO,-33.0551,-68.981,gas
Argentina,MAR DE AJO,-36.7208,-63.1977,gas
Argentina,MAR DEL PLATA (9 DE JULIO),-38.0495,-57.546,gas
Argentina,MAYOR BURATOVICH,-39.2291,-62.6497,wind
Argentina,MBURUCUYA,-28.0441,-58.2285,oil
Argentina,LA VIÑA,-31.8708,-65.0349,hydro
Argentina,GENERAL SAN MARTIN,-33.0449,-68.9219,hydro
Argentina,CUESTA DEL VIENTO,-30.1833,-69.0667,hydro
Argentina,GENERAL ACHA,-37.4309,-64.716,wind
Argentina,MODESTO MARANZANA,-33.1608,-64.3656,gas
Argentina,CT TUCUMAN,-26.9955,-65.166,gas
Argentina,CT VENADO TUERTO,-33.7736,-61.9564,oil
Argentina,CT VIALE,-31.8919,-60.0106,oil
Argentina,CT VILLA ANGELA,-27.5808,-60.7094,oil
Argentina,CT VILLA REGINA,-39.0872,-67.0881,oil
Argentina,Cafayate,-26.04,-65.93,solar
Argentina,Caldenes del Oeste,-33.61,-65.445,solar
Argentina,Cauchari,-23.8,-66.8,solar
Argentina,DEAN FUNES,-31.3934,-64.2059,gas
Argentina,DIQUE,-34.8902,-57.933,gas
Argentina,DOCK SUD,-34.6533,-58.342,gas
Argentina,GENERAL LEVALLE,-34.0364,-63.9217,gas
Argentina,EL CADILLAL,-26.6156,-65.1929,hydro
Argentina,EL CHOCON,-39.2577,-68.7483,hydro
Argentina,EL TIGRE,-34.61,-68.6136,hydro
Argentina,EL TUNAL,-25.2323,-64.4762,hydro
Argentina,EMBALSE,-32.2316,-64.4422,nuclear
Argentina,ESCABA,-27.6589,-65.7633,hydro
Argentina,ESQUINA,-30.0102,-59.5321,oil
Argentina,EX CENTRAL BUENOS AIRES,-34.627,-58.3382,gas
Argentina,FILO MORADO,-37.2742,-69.652,gas
Argentina,FITZ SIMON,-32.1784,-64.4207,hydro
Argentina,FLORENTINO AMEGHINO,-43.6996,-66.4815,hydro
Argentina,FUTALEUFU,-43.1288,-71.63,hydro
Argentina,GENERACION FRIAS SA,-28.6072,-65.1228,gas
Argentina,EL CARRIZAL,-33.2993,-68.7199,hydro
Argentina,NECOCHEA,-38.5785,-58.7108,coal
Argentina,SORRENTO,-32.9053,-60.6807,coal
Argentina,NIHUIL II,-34.9039,-68.6177,hydro
Argentina,RIO CORRALITO,-24.983,-65.686,hydro
Argentina,RIO CUARTO,-33.1614,-64.3649,gas
Argentina,RIO GRANDE,-53.7862,-67.7222,hydro
Argentina,RIO HONDO,-27.5225,-64.8861,hydro
Argentina,SALTO ANDERSEN,-38.8244,-64.8296,hydro
Argentina,SALTO GRANDE (MITAD ARGENTINA),-31.3891,-68.6752,hydro
Argentina,SAN FRANCISCO,-31.4391,-62.1119,gas
Argentina,SAN MARTIN DE LOS ANDES,-40.1511,-71.334,oil
Argentina,SAN NICOLAS,-33.3562,-60.1729,coal
Argentina,SAN PEDRO,-26.6253,-54.1102,oil
Argentina,SAN ROQUE,-31.3533,-64.3938,hydro
Argentina,SANTA ISABEL,-36.2314,-66.9381,oil
Argentina,QUEBRADA DE ULLUM,-31.2567,-61.5203,hydro
Argentina,SANTO TOME,-28.5497,-56.0722,oil
Argentina,SUDOESTE,-31.463,-64.2388,gas
Argentina,Saujil,-28.165,-66.225,solar
Argentina,TARTAGAL,-22.5099,-63.797,gas
Argentina,TENARIS SIDERCA CETE II,-33.3655,-60.1435,gas
Argentina,TOSTADO,-29.2352,-61.7577,oil
Argentina,ULLUM,-31.4557,-68.7556,hydro
Argentina,URUGUA-I,-25.8766,-54.5687,hydro
Argentina,VENADO TUERTO,-33.7777,-61.9555,oil
Argentina,VILLA GESELL,-37.2487,-56.9973,gas
Argentina,VILLA MARIA (LAS PLAYAS),-39.0872,-67.0881,gas
Argentina,VUELTA DE OBLIGADO,-32.5807,-60.7903,gas
Argentina,YACYRETA,-27.4827,-56.7397,hydro
Argentina,CT TINOGASTA,-28.0486,-67.5667,oil
Argentina,NIHUIL I,-34.9907,-68.6237,hydro
Argentina,PUNTA ALTA - CENTENARIO,-38.7833,-61.8984,wind
Argentina,PUERTO MADRYN,-42.7069,-65.1048,gas
Argentina,NIHUIL III,-34.8821,-68.576,hydro
Argentina,NIHUIL IV,-34.833,-68.5168,hydro
Argentina,NUEVA ESPERANZA,-26.2072,-64.2477,oil
Argentina,NUEVO PUERTO,-34.5721,-58.3835,gas
Argentina,OBERA (TG Nº21 FIAT ),-27.5019,-55.1245,gas
Argentina,ORENSE,-38.6851,-59.7804,oil
Argentina,PARANA,-33.3549,-60.1718,other
Argentina,PARQUE EOLICO ARAUCO SAPEM I,-28.6684,-66.7524,wind
Argentina,PARQUE EOLICO ARAUCO SAPEM II,-28.6684,-66.7524,wind
Argentina,PARQUE EOLICO DIADEMA,-45.7458,-67.6953,wind
Argentina,PARQUE EOLICO EL TORDILLO,-45.8507,-67.9081,wind
Argentina,PARQUE EOLICO LOMA BLANCA IV (ENARSA),-43.0907,-65.2298,wind
Argentina,PUERTO NUEVO,-34.5754,-58.3788,coal
Argentina,PARQUE EOLICO RAWSON I (ENARSA),-43.3522,-65.1734,wind
Argentina,PASO DE LOS LIBRES,-29.7148,-57.0933,oil
Argentina,PATAGONIA,-45.7934,-67.5145,gas
Argentina,PERUGORRIA,-29.34,-58.6077,oil
Argentina,PICO TRUNCADO I,-46.7842,-67.9498,gas
Argentina,PIEDRA DEL AGUILA (CPSA),-31.6651,-63.8314,hydro
Argentina,PIEDRAS MORAS,-32.1675,-64.2438,hydro
Argentina,PILAR  BICENTENARIO,-31.6651,-63.8314,gas
Argentina,PILAR ZANICHELLI,-31.6662,-63.8344,coal
Argentina,PLANICIE BANDERITA,-28.5339,-65.7997,hydro
Argentina,PLANTA PILOTO FOTOVOLTAICA SAN JUAN 1,-31.3891,-68.6752,solar
Argentina,PRESIDENTE SARMIENTO,-31.5129,-68.5399,gas
Argentina,PUEBLO VIEJO,-27.1149,-65.7523,hydro
Argentina,PARQUE EOLICO RAWSON II (ENARSA),-43.3522,-65.1734,wind
Argentina,CT TEREVINTOS,-28.4289,-65.7878,oil
Argentina,PICO TRUNCADO - JORGE ROMANUTTI,-46.8065,-67.9808,wind
Argentina,CT SANTA ROSA,-28.2628,-58.0006,oil
Argentina,CENTRAL T.GENELBA,-34.9027,-58.7334,gas
Argentina,CENTRAL T.GENELBA PLUS,-34.9027,-58.7334,gas
Argentina,CENTRAL TERMICA BRIGADIER LOPEZ (ENARSA),-31.7112,-60.7811,gas
Argentina,CENTRAL TERMICA DE CICLO COMBINADO SALTA,-24.7456,-65.0513,gas
Argentina,CENTRAL TERMICA GÜEMES SA,-24.6894,-65.0425,coal
Argentina,CENTRAL TERMICA LA BANDA,-27.7528,-64.2655,gas
Argentina,CENTRAL TERMICA PIQUIRENDA SA,-22.3497,-63.7664,oil
Argentina,CENTRAL TERMICA REMEDIOS DE ESCALADA,-34.7208,-58.3881,oil
Argentina,CENTRAL TERMOELECTRICA GUILLERMO BROWN,-34.6268,-58.5438,gas
Argentina,CT TARTAGAL,-22.5406,-63.8056,oil
Argentina,CENTRAL TERMOELECTRICA MANUEL BELGRANO,-24.6894,-65.0425,gas
Argentina,CENTRAL TERMOELECTRICA TIMBUES,-32.5778,-60.791,gas
Argentina,CENTRAL PARQUE INDUSTRIAL LA BANDA,-38.062,-67.9463,oil
Argentina,CH LOS CARACOLES,-31.5192,-68.9814,hydro
Argentina,CHIMBERA 1,-31.9881,-68.5402,solar
Argentina,CIPOLLETTI,-38.9121,-67.9427,hydro
Argentina,COMANDANTE ANDRESITO,-25.6669,-54.0419,oil
Argentina,COMODORO RIVADAVIA,-25.9913,-54.6278,gas
Argentina,COMODORO RIVADAVIA - ANTONIO MORAN,-45.8467,-67.4964,wind
Argentina,CORRIENTES,-27.4708,-58.8042,oil
Argentina,COSTANERA,-34.626,-58.3393,coal
Argentina,CRUZ DE PIEDRA,-33.0349,-68.7971,gas
Argentina,CRUZ DEL EJE,-30.7636,-64.7538,oil
Argentina,CT 13 DE JULIO,-32.1613,-64.1537,gas
Argentina,CT ALEM,-43.0907,-65.2298,oil
Argentina,CT ALUMINE,-38.8706,-70.5753,oil
Argentina,CHILECITO,-29.1578,-67.5069,oil
Argentina,CT ARISTOBULO DEL VALLE,-27.0922,-54.8625,oil
Argentina,CENTRAL LOMA DE LA LATA SA,-38.5127,-68.6048,gas
Argentina,CASSAFFOUSTH,-31.3992,-64.2006,hydro
Argentina,AGUA DEL CAJON (AUTOGENERADOR DEL MEM),-38.9368,-68.3556,other
Argentina,AGUA DEL CAJON (GENERADOR DEL MEM),-38.9368,-68.3556,gas
Argentina,AGUA DEL TORO,-34.5792,-68.9892,hydro
Argentina,ALICURA,-40.58,-70.7489,hydro
Argentina,ALMIRANTE BROWN,-34.8386,-58.4033,oil
Argentina,ALTO VALLE,-38.9524,-68.0218,gas
Argentina,ALUMINE,-39.2145,-70.9157,oil
Argentina,ALVAREZ CONDARCO,-33.0452,-69.0516,hydro
Argentina,ARROYITO,-39.1009,-68.5982,hydro
Argentina,ATUCHA I,-33.967,-59.2059,nuclear
Argentina,ATUCHA II,-33.9674,-59.2045,nuclear
Argentina,BANDERA,-23.8219,-64.7847,oil
Argentina,CENTRAL BAHIA BLANCA (PIEDRA BUENA) SA,-38.7872,-62.2536,coal
Argentina,BARILOCHE (PUERTO  MORENO),-41.1167,-71.4167,oil
Argentina,BERNARDO  DE IRIGOYEN,-26.2545,-53.6469,oil
Argentina,C.T. RUFINO,-34.2605,-62.7107,oil
Argentina,C.T. SAN VICENTE,-35.0241,-58.4237,oil
Argentina,CAA CATI,-27.7534,-57.6205,oil
Argentina,CABRA CORRAL,-25.2712,-65.3298,hydro
Argentina,CACHEUTA (NUEVA),-33.0291,-69.1109,hydro
Argentina,CACHI,-25.1089,-66.2106,oil
Argentina,CAFAYATE,-26.0715,-65.9876,oil
Argentina,CAPITAL CATAMARCA - PREDIO CHOYA,-28.4537,-65.7841,oil
Argentina,CAPITAL CATAMARCA - PREDIO EX CARCEL,-28.4773,-65.7872,oil
Argentina,CAPITAL CATAMARCA - PREDIO RIPIERA,-28.4684,-65.7797,oil
Argentina,CASA DE PIEDRA,-38.2143,-67.1908,hydro
Argentina,BENJAMIN REOLIN,-32.1883,-64.3233,hydro
Argentina,CT AÑATUYA,-28.4431,-62.8569,oil
Argentina,CT ARRECIFES,-34.0414,-60.1297,oil
Argentina,CT LAS ARMAS,-37.0781,-57.8181,gas
Argentina,CT LAS ARMAS II,-37.0781,-57.8181,gas
Argentina,CT LAS PALMAS,-27.0289,-58.6997,oil
Argentina,CT LIBERTADOR GENERAL SAN MARTIN,-40.8421,-68.0869,oil
Argentina,CT LINCOLN,-34.8578,-61.5206,oil
Argentina,CT LOBOS,-35.1917,-59.0808,oil
Argentina,CT MAGDALENA,-35.1001,-57.4839,oil
Argentina,CT MATHEU,-34.3931,-58.8372,gas
Argentina,CT MEDANITOS (RINCON DE LOS SAUCES),-37.4102,-68.9,oil
Argentina,CT MIRAMAR I,-38.2472,-57.8242,oil
Argentina,CT OLAVARRIA,-36.9439,-60.2361,gas
Argentina,CT ORAN,-23.1258,-64.3069,oil
Argentina,CT PARANA,-31.7764,-60.4553,gas
Argentina,CT PARQUE INDUSTRIAL CATAMARCA,-28.5339,-65.7997,oil
Argentina,CT PASO DE LA PATRIA,-27.3236,-58.5667,oil
Argentina,CT PEHUAJO,-35.8336,-61.8758,oil
Argentina,CT PINAMAR,-37.0953,-56.8789,gas
Argentina,CT PIRANE,-25.6786,-59.0756,oil
Argentina,CT PLUSPETROL NORTE,-26.9955,-65.166,gas
Argentina,CT RAFAELA,-31.2567,-61.5203,oil
Argentina,CT REALICO,-35.055,-64.2406,oil
Argentina,CT ROCA,-31.8919,-60.0106,gas
Argentina,CT SAENZ PEÑA  I,-26.8156,-60.4114,oil
Argentina,CT SAENZ PEÑA  II,-26.8153,-60.4125,oil
Argentina,CT SALTO,-27.4597,-65.6055,oil
Argentina,CT SAN MARTIN NORTE III,-34.5252,-58.6206,oil
Argentina,CT AÑATUYA II,-28.4431,-62.8569,oil
Argentina,CT LAGUNA BLANCA,-25.1286,-58.2597,oil
Argentina,CT LA RIOJA SUR,-29.3808,-66.8319,oil
Argentina,CT LA RIOJA DELIVERY,-29.3811,-66.8325,oil
Argentina,CT BARILOCHE,-41.1497,-71.2633,oil
Argentina,CT BELL VILLE,-32.6103,-62.6864,oil
Argentina,CT BRAGADO,-35.1364,-60.4311,gas
Argentina,CT CAPITAN SARMIENTO,-34.1636,-59.7683,oil
Argentina,CT CATAMARCA,-28.4706,-65.7647,oil
Argentina,CT CAVIAHUE,-38.0528,-70.6136,oil
Argentina,CT CERES,-29.8883,-61.9297,oil
Argentina,CT CHARATA,-27.2369,-61.1939,oil
Argentina,CT CHILECITO,-29.1581,-67.5072,oil
Argentina,CT CIPOLLETTI,-38.9133,-67.9414,oil
Argentina,CT COLON BUENOS AIRES,-33.9222,-61.0769,oil
Argentina,CT CONCEPCION DEL URUGUAY,-32.4767,-58.2672,gas
Argentina,CT SAN MIGUEL DE TUCUMAN,-26.9955,-65.166,gas
Argentina,CT CORRIENTES,-27.4708,-58.8042,oil
Argentina,CT ENSENADA DE BARRAGAN,-34.8597,-57.9557,gas
Argentina,CT ESQUINA,-30.055,-59.5294,oil
Argentina,CT FORMOSA II,-26.1764,-58.2094,oil
Argentina,CT GENERAL VILLEGAS,-35.0347,-62.9981,oil
Argentina,CT GOYA,-29.1583,-59.2728,oil
Argentina,CT INDEPENDENCIA,-26.8666,-65.2247,gas
Argentina,CT INGENIERO JUAREZ,-23.9078,-61.8342,oil
Argentina,CT INTA CATAMARCA,-28.4733,-65.7275,oil
Argentina,CT ISLA VERDE,-33.2425,-62.395,oil
Argentina,CT JUAN JOSE CASTELLI,-25.9564,-60.6204,oil
Argentina,CT JUNIN,-34.5708,-60.9161,oil
Argentina,CT LA PLATA,-34.9344,-58.016,oil
Argentina,CT ECOENERGIA (PETROBRAS),-38.6871,-62.3961,coal
Argentina,CT SAN MIGUEL NORTE III,-34.5252,-58.6206,oil
Armenia,Tatev,39.3956,46.2578,hydro
Armenia,Yerevan,40.1138,44.5038,gas
Armenia,Spandaryan,39.6494,45.85,hydro
Armenia,Shamb,39.4743,46.1306,hydro
Armenia,New Yerevan,40.1152,44.4973,gas
Armenia,Hrazadan,40.564,44.7479,gas
Armenia,Armenian-2,40.1805,44.1498,nuclear
Armenia,Sevan-Hrazdan Cascade,40.5078,44.7606,hydro
Australia,Snowtown North,-33.714,138.1402,wind
Australia,Perth Zoo,-31.9767,115.8548,solar
Australia,Peterborough SA,-32.945,138.905,solar
Australia,Pindari,-29.3886,151.2442,hydro
Australia,Pine Creek,-13.7856,131.8624,gas
Australia,Pinjar,-31.5568,115.8204,gas
Australia,Plane Creek Sugar Mill,-21.4282,149.2159,biomass
Australia,Pioneer Sugar Mill,-19.5575,147.3308,biomass
Australia,Plutonic Gold Mine,-25.311,119.4508,gas
Australia,Poatina,-41.8115,146.9192,hydro
Australia,Port Hedland,-20.4283,118.5498,gas
Australia,Port Hedland (Smaller),-20.3782,118.5384,gas
Australia,Pinjarra Bauxite Mine and Alumina Refinery,-32.6473,115.9469,gas
Australia,Pelican Point,-34.765,138.5053,gas
Australia,Parkes Solar Farm,-33.1027,148.075,solar
Australia,Paraburdoo (Standby),-23.2238,117.6137,gas
Australia,Paraburdoo,-23.2233,117.6133,gas
Australia,Paloona,-41.2826,146.249,hydro
Australia,Owen Springs,-23.8636,133.8255,gas
Australia,Osborne,-34.798,138.5079,gas
Australia,Ord River,-16.1201,128.7383,hydro
Australia,Onslow,-21.6582,115.099,gas
Australia,Oaky Creek,-22.9878,148.5817,gas
Australia,Oaky,-30.5751,152.069,hydro
Australia,Oakland Hills Wind Farm,-37.6871,142.5467,wind
Australia,Oakey 2,-27.412,151.655,solar
Australia,Oakey 1,-27.406,151.647,solar
Australia,Pedler Creek,-35.2023,138.5021,waste
Australia,Port Lincoln,-34.7003,135.8044,oil
Australia,Proserpine Sugar Mill,-20.3985,148.5797,biomass
Australia,Quarantine,-34.7793,138.5224,gas
Australia,Smithfield Energy,-33.85,150.9495,gas
Australia,Shepparton Biogas Generation Plant,-36.3218,145.379,waste
Australia,Shenton Park WMRC Project,-31.9577,115.7924,waste
Australia,Savannah Nickel Mine,-17.3631,128.0331,oil
Australia,Sapphire Wind Farm,-29.6997,151.4119,wind
Australia,Rugby Run Solar Farm,-22.1405,147.9188,solar
Australia,Rubicon,-37.3272,145.8605,hydro
Australia,Royalla Solar Farm,-35.4897,149.1435,solar
Australia,Roy Hill,-22.4812,119.9472,oil
Australia,Rowallan,-41.7295,146.2176,hydro
Australia,Ross River,-19.424,146.715,solar
Australia,Ron Goodin,-23.7091,133.8912,gas
Australia,Port Stanvac,-35.1104,138.4915,oil
Australia,Roma,-26.5772,148.8402,gas
Australia,Roghan Road,-27.3388,153.0344,waste
Australia,Rocky Point Sugar Sugar Mill,-27.7334,153.3276,biomass
Australia,Rockingham,-32.2863,115.8154,waste
Australia,Rochedale,-27.5591,153.1236,waste
Australia,Revesby Workers Club,-33.9534,151.0137,oil
Australia,Repulse,-42.5077,146.647,hydro
Australia,Remount,-41.395,147.1554,waste
Australia,Reece,-41.7238,145.1359,hydro
Australia,Redbank,-32.5802,151.0719,coal
Australia,Red Hill,-31.8317,116.0992,waste
Australia,Ravensthorpe,-33.61,120.36,oil
Australia,Racecourse Mill,-21.1635,149.1344,biomass
Australia,Rollingstone QLD,-19.03,146.394,solar
Australia,Oakey,-27.4183,151.6797,gas
Australia,Manildra Solar Farm,-33.1733,148.718,solar
Australia,Nymboida,-29.9257,152.7417,hydro
Australia,Mt Gellibrand Wind Farm,-38.2587,143.8019,wind
Australia,Mt Gambier,-37.8388,140.8057,biomass
Australia,Mount Stuart,-19.338,146.8512,oil
Australia,Mount Millar Wind Farm,-33.6255,136.7039,wind
Australia,Mount Magnet,-28.0871,117.8327,gas
Australia,Mount Keith Nickel Mine,-27.2146,120.548,gas
Australia,Mortons Lane Wind Farm,-37.8413,142.4653,wind
Australia,Mortlake,-38.0632,142.6675,gas
Australia,Mornington,-38.3916,144.8553,waste
Australia,Moree,-29.5722,149.8669,solar
Australia,Moranbah North,-21.8967,147.9507,gas
Australia,Moranbah,-21.9851,148.0246,gas
Australia,Mt Mercer Wind Farm,-37.8317,143.8892,wind
Australia,Moorabool South Wind Farm,-37.7402,144.1622,wind
Australia,Mintaro,-33.9031,138.7383,gas
Australia,Millmerran,-27.9615,151.2789,coal
Australia,Mica Creek,-20.7776,139.4906,gas
Australia,Merredin,-31.5423,118.227,gas
Australia,Melbourne,-37.8086,144.9685,gas
Australia,Meekatharra,-26.5952,118.483,oil
Australia,Meadowbank,-42.6112,146.8457,hydro
Australia,McKay Creek (Mount Beauty Hydro Scheme),-36.8584,147.2345,hydro
Australia,McArthur River Mine,-16.4335,136.0935,gas
Australia,Maryvale Mill,-38.1809,146.4479,biomass
Australia,Maryborough,-25.5476,152.7171,biomass
Australia,Marble Bar Diesel Backup,-21.1649,119.7419,oil
Australia,Moorabool North Wind Farm,-37.655,144.1913,wind
Australia,Mt Piper,-33.3589,150.0313,coal
Australia,Mugga Lane,-35.3953,149.1458,waste
Australia,Mugga Lane Solar Park,-35.3989,149.146,solar
Australia,Numurkah Solar Farm,-36.1592,145.4746,solar
Australia,Northam,-31.652,116.711,solar
Australia,North Sydney,-33.8398,151.2069,gas
Australia,North Brown Hill  Wind Farm,-33.3093,138.7296,wind
Australia,Norseman Mine,-32.1963,121.7943,oil
Australia,Normanton,-17.681,141.05,solar
Australia,Noranda,-31.8654,115.8773,waste
Australia,Nine Network,-33.811,151.1966,oil
Australia,Nieterana,-42.2686,146.2629,hydro
Australia,Nhulunbuy,-12.1889,136.6872,oil
Australia,Newport,-37.8415,144.8942,gas
Australia,Newman Iron Ore Mine,-23.3443,119.7086,gas
Australia,Neerabup,-31.6712,115.8021,gas
Australia,Narromine,-32.224,148.256,solar
Australia,Narrogin Bioenergy Plant,-32.9521,117.1916,biomass
Australia,Musselroe,-40.7798,148.0097,wind
Australia,Murrin Murrin (Nickel Mine),-28.9238,121.3293,gas
Australia,Murray 2,-36.2423,148.1362,hydro
Australia,Murray 1,-36.2467,148.1901,hydro
Australia,Murra Warra Wind Farm,-36.4333,142.3182,wind
Australia,Munmorah,-33.2117,151.5418,coal
Australia,Mungullah,-24.8911,113.7095,gas
Australia,Mungarra,-28.8893,115.1177,gas
Australia,Mumbida Wind Farm,-28.9918,114.9599,wind
Australia,Mulgrave,-17.0932,145.7887,biomass
Australia,Muja D,-33.4464,116.3074,coal
Australia,Muja C,-33.446,116.3062,coal
Australia,Nyngan Solar Plant,-31.5527,147.0854,solar
Australia,Snowtown South,-33.8302,138.1184,wind
Australia,Victoria Sugar Mill,-18.6508,146.2016,biomass
Australia,Solomon Iron Ore Mine,-22.1581,117.9849,gas
Australia,Wilga Park,-30.3634,149.6772,gas
Australia,Whyalla SSE,-33.007,137.558,solar
Australia,Whitwood Road,-27.659,152.8237,waste
Australia,Whitsunday Solar Farm,-20.4949,147.7481,solar
Australia,White Rock,-29.765,151.553,solar
Australia,Western Suburbs Leagues Club (Campbelltown),-34.0513,150.8329,oil
Australia,West Nowra (Shoalhaven),-34.882,150.5515,waste
Australia,West Kiewa (Mount Beauty Hydro Scheme),-36.7601,147.186,hydro
Australia,West Kalgoorlie,-30.7806,121.4234,oil
Australia,West Illawarra Leagues Club,-34.4515,150.8429,oil
Australia,West Angelas Mine,-23.1546,118.7245,gas
Australia,Wemen Solar Farm,-34.8027,142.5457,solar
Australia,Williamsdale,-35.571,149.128,solar
Australia,Weddell,-12.5771,130.9502,gas
Australia,Waubra Wind Farm,-37.3575,143.6037,wind
Australia,Wattle Point Wind Farm,-35.1104,137.7058,wind
Australia,Waterloo Wind Farm,-34.001,138.9109,wind
Australia,Warrego,-19.4434,133.8236,gas
Australia,Warragamba,-33.8832,150.5965,hydro
Australia,Warmun,-17.0259,128.2113,oil
Australia,Wallerawang C,-33.4028,150.0833,coal
Australia,Walkaway Wind Farm,-28.9229,114.9282,wind
Australia,Wagerup Bauxite Mine and Alumina Refinery,-32.9145,115.917,gas
Australia,Wagerup,-32.916,115.9186,gas
Australia,Wadeye,-14.2602,129.5368,gas
Australia,Visy Pulp and Paper Tumut,-35.2959,148.1371,biomass
Australia,Wayatinah,-42.4272,146.5347,hydro
Australia,Wilmot,-41.4833,146.1251,hydro
Australia,Wilpena Solar Farm,-31.5234,138.6198,solar
Australia,Wiluna,-26.5922,120.2185,oil
Australia,Mandurah,-32.5079,115.759,waste
Australia,Yurralyi Maya (Karratha Seven Mile),-20.762,116.742,gas
Australia,Yulara,-25.2323,130.9912,gas
Australia,Yatpool,-34.407,142.179,solar
Australia,Yarwun,-23.8306,151.1519,gas
Australia,Yarrawonga,-36.0094,145.9995,hydro
Australia,Yambuk Wind Farm,-38.3079,142.0151,wind
Australia,Yaloak South Wind Farm,-37.7281,144.2408,wind
Australia,Yallourn,-38.177,146.3428,coal
Australia,Xstata X41,-20.7437,139.4803,gas
Australia,Wyndham,-37.9375,144.5902,waste
Australia,Wyangala A,-33.981,148.9473,hydro
Australia,Worsley Cogeneration,-33.2365,116.0637,gas
Australia,Worsley,-33.2355,116.0688,coal
Australia,Woodman Point,-32.1424,115.7713,waste
Australia,Woodlawn Wind Farm,-35.0861,149.5716,wind
Australia,Woodlawn Bioreactor,-35.059,149.5769,waste
Australia,Wonthaggi Wind Farm,-38.6037,145.5462,wind
Australia,Wollert,-37.583,145.0487,waste
Australia,Wodgina,-21.1739,118.6747,gas
Australia,Wivenhoe Hydroelectric,-27.3722,152.632,hydro
Australia,Wivenhoe,-27.3952,152.6092,hydro
Australia,Wingfield II,-34.8321,138.5489,waste
Australia,Wingfield I,-34.8348,138.5572,waste
Australia,Windy Hill Wind Farm,-17.5922,145.5306,wind
Australia,Windimurra Vanadium Mine,-28.2933,118.5371,gas
Australia,Wiluna Gold Mine,-26.6316,120.2519,gas
Australia,Visy Paper Gibson Island,-27.4405,153.1158,biomass
Australia,Snuggery,-37.6646,140.4156,gas
Australia,Valley (Peaking Facility),-38.2536,146.5892,gas
Australia,Valdora,-26.56,153.025,solar
Australia,Tarong,-26.7824,151.9153,coal
Australia,Taralga Wind Farm,-34.4314,149.8652,wind
Australia,Tamar Valley,-41.1401,146.9036,gas
Australia,Tamala Park,-31.7078,115.7266,waste
Australia,Tallawarra,-34.5228,150.8081,gas
Australia,Tailem Bend Solar Farm,-35.2708,139.4924,solar
Australia,Tahmoor,-34.2482,150.5808,gas
Australia,Tableland,-17.1193,145.345,biomass
Australia,Symex Port Melbourne,-37.8298,144.9444,gas
Australia,Swanbank E,-27.6554,152.8179,gas
Australia,Swan Hill,-35.342,143.518,solar
Australia,Susan River,-25.32,152.405,solar
Australia,Tarong (Oil),-26.7858,151.9172,oil
Australia,Sunrise Dam,-29.0927,122.4393,gas
Australia,Suncoast Gold Macadamia,-26.2261,152.6981,biomass
Australia,Sun Metals Solar Farm,-19.3355,146.8885,solar
Australia,Summerhill,-32.891,151.65,solar
Australia,Studland Bay (Woolnorth) Wind Farm,-40.7788,144.7362,wind
Australia,Starfish Hill Wind Farm,-35.5678,138.1432,wind
Australia,Stapylton Green Energy,-27.7334,153.2463,biomass
Australia,Stanwell,-23.5097,150.3195,coal
Australia,St George Leagues Club,-33.9748,151.1294,oil
Australia,Springvale,-37.9733,145.1396,waste
Australia,South Johnstone,-17.6057,145.991,biomass
Australia,South Cardup (Shale Road Landfill),-32.2664,116.0193,waste
Australia,Somerton,-37.6318,144.9531,gas
Australia,Sunraysia,-34.804,143.491,solar
Australia,Tarong North,-26.7758,151.9146,coal
Australia,Tarraleah,-42.3012,146.4572,hydro
Australia,Tatura Biogas Generation Plant,-36.4793,145.235,waste
Australia,Uterne Solar,-23.7685,133.8682,solar
Australia,Uranquinty,-35.1794,147.2157,gas
Australia,Upper Lake Margaret,-42.0046,145.5437,hydro
Australia,University of Queensland (St Lucia Campus) Solar Array,-27.495,153.0101,solar
Australia,Tungatinah,-42.2967,146.4565,hydro
Australia,Tumut 3,-35.6112,148.2917,hydro
Australia,Tumut 2 (Upper Tumut),-35.8814,148.3672,hydro
Australia,Tumut 1 (Upper Tumut),-35.9517,148.3637,hydro
Australia,Tully Sugar Mill,-17.9373,145.9267,biomass
Australia,Tribute,-41.8129,145.6538,hydro
Australia,Trevallyn,-41.4226,147.1119,hydro
Australia,Traralgon Network Support Station,-38.1793,146.5654,waste
Australia,Townsville,-19.2011,146.6187,gas
Australia,Tower Mine,-34.2207,150.7179,gas
Australia,Torrens Island B,-34.8052,138.5226,gas
Australia,Torrens Island A,-34.8068,138.5213,gas
Australia,Toora Wind Farm,-38.6451,146.3441,wind
Australia,Tomago Aluminium Smelter,-32.8217,151.7178,gas
Australia,Tods Corner,-41.9707,146.7938,hydro
Australia,Timber Creek,-15.6562,130.479,oil
Australia,Ti Tree Bioenergy,-27.6802,152.6593,waste
Australia,The Drop,-35.6043,145.7837,hydro
Australia,Terminal Storage,-34.8393,138.7112,hydro
Australia,Teralba,-32.9455,151.6119,gas
Australia,Tennant Creek,-19.6549,134.1753,gas
Australia,Telfer Gold Mine,-21.7129,122.2091,gas
Australia,Tea Tree Gully,-34.8303,138.7129,waste
Australia,Vales Point B,-33.1607,151.5431,coal
Australia,Macknade Sugar Mill,-18.589,146.258,biomass
Australia,Longford,-38.2236,147.1657,gas
Australia,Mackay,-21.1446,149.1591,gas
Australia,Cloudbreak,-22.3247,119.404,oil
Australia,Clermont Solar Farm,-22.8446,147.5855,solar
Australia,Clements Gap Wind Farm,-33.5086,138.1192,wind
Australia,Claytons,-37.9502,145.1187,waste
Australia,Clare Solar Farm,-19.8398,147.2105,solar
Australia,Christmas Creek Iron Ore Mine,-22.399,119.732,oil
Australia,Childers,-25.28,152.38,solar
Australia,Charlestown Square,-32.9643,151.6936,gas
Australia,Channel Island,-12.555,130.8666,gas
Australia,Challicum Hills Wind Farm,-37.3898,143.114,wind
Australia,Cethana,-41.4787,146.1349,hydro
Australia,Cawse Nickel Mine,-30.3808,121.1635,gas
Australia,Clover,-36.7853,147.2205,hydro
Australia,Cathedral Rocks Wind Farm,-34.8509,135.5852,wind
Australia,Carnarvon,-24.8692,113.6754,gas
Australia,Capral (Aluminium Smelter),-32.7897,151.4813,gas
Australia,Capital Hill Wind Farm,-35.166,149.5186,wind
Australia,Cape Sir William Grant Wind Farm,-38.3976,141.6209,wind
Australia,Cape Preston,-21.0767,116.159,gas
Australia,Cape Nelson South Wind Farm,-38.412,141.543,wind
Australia,Cape Nelson North Wind Farm,-38.3676,141.543,wind
Australia,Cape Lambert,-20.6488,117.1407,gas
Australia,Cape Bridgewater Wind Farm,-38.3577,141.385,wind
Australia,Canunda Wind Farm,-37.7603,140.4033,wind
Australia,Cannington Mine,-21.8601,140.9158,gas
Australia,Canning Vale,-32.0739,115.8914,waste
Australia,Catagunya,-42.4524,146.5977,hydro
Australia,Cluny,-42.5064,146.6812,hydro
Australia,Cockburn,-32.2001,115.7737,gas
Australia,Codrington Wind Farm,-38.2835,141.9547,wind
Australia,Dry Creek,-34.8475,138.5818,gas
Australia,Diamantina,-20.7837,139.4833,gas
Australia,Devils Gate,-41.3505,146.2632,hydro
Australia,Derby,-17.3141,123.6441,gas
Australia,Denham Diesel Backup,-25.9167,113.534,oil
Australia,DeGrussa,-25.55,119.317,solar
Australia,Daydream Solar Farm ,-20.4947,147.7707,solar
Australia,Darwin DRW,-12.4157,130.8908,solar
Australia,Dartmouth (Mount Beauty Hydro Scheme),-36.5564,147.5206,hydro
Australia,Darlot Gold Mine,-27.8972,121.2698,gas
Australia,Darling Downs Solar Farm,-27.1169,150.8942,solar
Australia,Darling Downs,-27.1169,150.8942,gas
Australia,Dampier,-20.648,116.7219,gas
Australia,Daandine,-27.0863,150.943,gas
Australia,Cullerin Range Wind Farm,-34.805,149.4001,wind
Australia,Crowlands Wind Farm,-37.1216,143.1537,wind
Australia,Crookwell Wind Farm,-34.5165,149.5425,wind
Australia,Corio,-38.0587,144.4056,waste
Australia,Coral Bay Diesel Backup,-23.1521,113.7762,oil
Australia,Copeton,-29.9102,150.9235,hydro
Australia,Condong Sugar Mill,-28.3138,153.4341,biomass
Australia,Condamine A,-26.6682,150.27,gas
Australia,Collinsville Solar Farm,-20.5411,147.8074,solar
Australia,Collinsville,-20.5447,147.8049,coal
Australia,Collie A,-33.3422,116.2612,coal
Australia,Collie (Bluewaters),-33.331,116.229,coal
Australia,Collgar Wind Farm,-31.5432,118.4566,wind
Australia,Camballin,-18.0278,124.1621,gas
Australia,Dubbo,-32.273,148.658,solar
Australia,Callide C,-24.3449,150.6182,coal
Australia,Callide A,-24.334,150.628,coal
Australia,Berwick,-38.1197,145.2665,waste
Australia,Berrimah,-12.4262,130.9195,gas
Australia,Bendeela (Shoalhaven Scheme),-34.7337,150.4669,hydro
Australia,Bell Bay (Bell Bay Three),-41.1429,146.903,gas
Australia,Belconnen,-35.2142,148.9872,waste
Australia,Bayswater,-32.3953,150.9491,coal
Australia,Bastyan,-41.736,145.5321,hydro
Australia,Barron Gorge,-16.8502,145.6465,hydro
Australia,Barcaldine YD,-23.5388,145.2732,solar
Australia,Barcaldine KDB,-23.549,145.318,solar
Australia,Barcaldine (Len Wishaw),-23.5525,145.3142,gas
Australia,Bannerton Solar Farm,-34.6899,142.7452,solar
Australia,Beryl AU,-32.353,149.468,solar
Australia,Bankstown Sports Club,-33.9197,151.0332,oil
Australia,Ballarat Base Hospital,-37.5596,143.8469,gas
Australia,Bairnsdale,-37.8429,147.5639,gas
Australia,Argyle Diamond Mine,-16.7162,128.4031,oil
Australia,Ararat Wind Farm,-37.2385,143.0794,wind
Australia,Appin (Mine),-34.2082,150.7722,gas
Australia,Angurugu,-13.8584,136.4209,oil
Australia,Anglesea,-38.3861,144.1828,coal
Australia,Angaston,-34.5034,139.0246,oil
Australia,Amcor Gawler,-34.5509,138.7659,oil
Australia,Albany Wind Farm,-35.0641,117.7977,wind
Australia,Adelaide Showgrounds,-34.9453,138.5882,solar
Australia,Mackintosh,-41.6997,145.6461,hydro
Australia,Banimboola,-36.5344,147.4594,hydro
Australia,Bidyadanga,-18.6816,121.7848,oil
Australia,Blayney Wind Farm,-33.6219,149.1982,wind
Australia,Blowering,-35.3986,148.2463,hydro
Australia,CSIRO Energy Centre,-32.8835,151.7275,solar
Australia,Butlers Gorge,-42.2669,146.2618,hydro
Australia,Burrup Peninsula (Pluto Phase 1),-20.5937,116.7802,gas
Australia,Burrup Peninsula (Karratha Gas Plant),-20.6286,116.7821,gas
Australia,Burrinjuck Power Station,-35.0025,148.5834,hydro
Australia,Burrendong,-32.6646,149.108,hydro
Australia,Bungala II,-32.408,137.841,solar
Australia,Bungala I,-32.427,137.838,solar
Australia,Bulwer Island,-27.4036,153.1363,gas
Australia,Browns Plains,-27.6721,153.0663,waste
Australia,Brown Mountain,-36.5951,149.474,hydro
Australia,Broome,-17.981,122.2046,gas
Australia,Brooklyn,-37.818,144.8319,waste
Australia,Broken Hill Solar Plant,-31.9867,141.3915,solar
Australia,Broken Hill,-31.9863,141.4203,gas
Australia,Broadwater,-29.0118,153.4335,biomass
Australia,Broadmeadows,-37.6878,144.9663,waste
Australia,Brisbane BNE,-27.404,153.11,solar
Australia,Brewer,-23.8817,133.8281,gas
Australia,Bremer Bay Diesel Backup,-34.4018,119.3888,oil
Australia,Braemar 2,-27.1128,150.9049,gas
Australia,Braemar 1,-27.1109,150.9053,gas
Australia,Bogong (Mount Beauty Hydro Scheme),-36.8055,147.228,hydro
Australia,Bodangora Wind Farm,-32.4146,149.0998,wind
Australia,Boco Rock,-36.5763,149.1267,wind
Australia,Bluff Point (Woolnorth) Wind Farm,-40.7207,144.6869,wind
Australia,Blue Lake Milling Power Plant,-36.3164,140.7575,oil
Australia,Callide B,-24.3449,150.6197,coal
Australia,EarthPower Biomass Plant,-33.8204,151.042,waste
Australia,Colongra,-33.2099,151.5448,gas
Australia,Eastern Creek 2,-33.8125,150.8617,waste
Australia,Ladbroke Grove,-37.4567,140.7827,gas
Australia,Kwinana Swift,-32.2243,115.7783,gas
Australia,Kwinana NewGen,-32.202,115.7728,gas
Australia,Eastern Creek,-33.8142,150.8537,waste
Australia,Kwinana Cogeneration,-32.2225,115.7661,gas
Australia,Kwinana (Alcoa Refinery),-32.1946,115.7797,gas
Australia,Kwinana,-32.197,115.7759,gas
Australia,Kununurra,-15.7796,128.7395,oil
Australia,Koombooloomba,-17.8313,145.6034,hydro
Australia,Kogan Creek,-26.9177,150.7493,coal
Australia,King Island (Currie),-39.9388,143.892,oil
Australia,Kidston I,-18.89,144.14,solar
Australia,Lake Bonney Stage 1 Wind Farm,-37.7815,140.4058,wind
Australia,Kiata Wind Farm,-36.3966,141.7474,wind
Australia,Katherine,-14.4587,132.2445,gas
Australia,Karratha,-20.7626,116.8375,gas
Australia,Kareeya,-17.767,145.5779,hydro
Australia,Karadoc Solar Farm,-34.4154,142.2521,solar
Australia,Kangaroo Valley (Shoalhaven Scheme),-34.723,150.4795,hydro
Australia,Kambalda,-31.1919,121.6741,gas
Australia,Kalgoorlie Nickel Smelter,-30.8737,121.4842,gas
Australia,Kalgoorlie (Parkeston),-30.7378,121.5065,gas
Australia,Kalbarri Wind Farm,-27.8995,114.1946,wind
Australia,Kalamunda,-31.9768,115.9988,oil
Australia,Kalamia Sugar Mill,-19.5223,147.4152,biomass
Australia,KRC Cogeneration Plant,-27.4453,153.1185,gas
Australia,Kemerton,-33.1633,115.7805,gas
Australia,Lake Bonney Stage 2 Wind Farm,-37.8149,140.4195,wind
Australia,Lake Bonney Stage 3 Wind Farm,-37.7505,140.393,wind
Australia,Lake Cargelligo CSP,-33.311,146.4092,solar
Australia,Macarthur Wind Farm,-38.0648,142.1844,wind
Australia,Lucas Heights II,-34.0481,150.9739,waste
Australia,Lucas Heights I,-34.0293,151.0021,waste
Australia,Loy Yang B,-38.2564,146.5864,coal
Australia,Loy Yang A,-38.2536,146.5746,coal
Australia,Lower Rubicon,-37.3027,145.8458,hydro
Australia,Lower Lake Margaret,-42.0147,145.5261,hydro
Australia,Lonsdale,-35.1097,138.491,oil
Australia,Lincoln Gap,-32.5645,137.5572,wind
Australia,Lilyvale Solar Farm,-23.0875,148.439,solar
Australia,Liddell Solar Thermal,-32.3761,150.9797,solar
Australia,Liddell,-32.3713,150.9776,coal
Australia,Liapootah,-42.3763,146.5099,hydro
Australia,Leonora,-28.8811,121.3213,gas
Australia,Leonards Hill,-37.4271,144.1222,wind
Australia,Lemonthyme,-41.6038,146.139,hydro
Australia,Leinster Nickel Mine,-27.8141,120.699,gas
Australia,Leichhardt,-20.7835,139.4864,gas
Australia,Laverton North,-37.8416,144.7887,gas
Australia,Laverton (Granny Smith Gold Mine),-28.8096,122.415,oil
Australia,Laverton,-28.6216,122.3965,oil
Australia,Landfill Management Services Shoal Bay,-12.3892,130.9254,waste
Australia,Lakeland QLD,-15.869,144.862,solar
Australia,Lake William Hovell,-36.9129,146.3921,hydro
Australia,Lake Keepit,-30.8792,150.4914,hydro
Australia,Lake Glenmaggie,-37.9047,146.8011,hydro
Australia,Lake Echo,-42.2537,146.6207,hydro
Australia,Jundee Gold Mine,-26.3712,120.5776,gas
Australia,Jounama,-35.562,148.3055,hydro
Australia,Kwinana High Efficiency Gas Turbine Plant,-32.1973,115.7754,gas
Australia,Jindabyne Dam Mini Hydro,-36.4351,148.6333,hydro
Australia,Grasmere Wind Farm (Albany Stage II),-35.0507,117.7638,wind
Australia,Grange Avenue,-33.7029,150.8312,waste
Australia,Gosnells,-32.0228,116.0129,waste
Australia,Gordon,-42.7405,145.9828,hydro
Australia,Goondiwindi,-28.325,150.375,solar
Australia,Glenorchy,-42.8415,147.255,waste
Australia,Glennies Creek,-32.4598,151.1286,gas
Australia,Glenbawn,-32.1097,150.9982,hydro
Australia,Gladstone,-23.8508,151.2187,coal
Australia,German Creek,-22.9281,148.5515,gas
Australia,Geraldton,-28.7701,114.6485,gas
Australia,Gannawarra Solar Farm,-35.6762,143.4553,solar
Australia,Greenough River Solar Farm,-28.9043,115.1119,solar
Australia,Fitzroy Crossing,-18.1956,125.5597,gas
Australia,Exmouth,-21.9465,114.125,gas
Australia,Esperance Wind Farm Ten Mile Lagoon,-33.8802,121.769,wind
Australia,Esperance Wind Farm Nine Mile Beach,-33.8927,121.7778,wind
Australia,Esperance,-33.8762,121.8998,gas
Australia,Eraring,-33.0617,151.5223,oil
Australia,Energy Brix,-38.2546,146.4137,coal
Australia,John Butters,-42.1548,145.5345,hydro
Australia,Emu Downs,-30.489,115.416,solar
Australia,Emerald Solar Farm,-23.5084,148.1347,solar
Australia,Elliott,-17.5504,133.5393,oil
Australia,Eildon Small Hydro,-37.2431,145.8974,hydro
Australia,Eildon,-37.222,145.9215,hydro
Australia,Fisher,-41.6732,146.2687,hydro
Australia,Griffith Solar Farm,-34.3155,146.1094,solar
Australia,Emu Downs Wind Farm,-30.4882,115.3768,wind
Australia,Gullen Range Wind Farm,-34.6149,149.4597,wind
Australia,Gullen,-34.61,149.476,solar
Australia,Jeeralang B,-38.2746,146.4249,gas
Australia,Jeeralang A,-38.2753,146.4263,gas
Australia,Jacks Gully,-34.0734,150.7427,waste
Australia,Invicta Sugar Mill,-19.5167,147.1065,biomass
Australia,Inkerman Sugar Mill,-19.6422,147.4016,biomass
Australia,Hunter Valley,-32.3893,150.9664,gas
Australia,Hunter,-32.836,151.4505,oil
Australia,Hume,-36.1066,147.0326,hydro
Australia,Hughendon,-20.875,144.17,solar
Australia,Hopetoun Wind Turbines,-33.9078,120.1297,wind
Australia,Hopetoun Diesel Backup,-33.905,120.1299,oil
Australia,Hobart,-42.8883,147.2888,waste
Australia,Highbury,-34.849,138.7203,waste
Australia,Isis Central Sugar Mill,-25.194,152.2086,biomass
Australia,Hazelwood,-38.2731,146.3923,coal
Australia,Henderson,-32.165,115.8008,waste
Australia,Hallam Road,-38.0535,145.2699,waste
Australia,Guthega,-36.3501,148.4135,hydro
Australia,Hallett,-33.3487,138.7517,gas
Australia,Hallett 1 Brown Hill Wind Farm,-33.3397,138.7323,wind
Australia,Hallet 5 - The Bluff,-33.3855,138.7928,wind
Australia,Gunning,-34.6977,149.3861,wind
Australia,Halls Creek,-18.2328,127.6619,gas
Australia,Hamilton Solar Farm,-20.5048,147.7671,solar
Australia,Haughton River Solar Farm,-19.733,147.0483,solar
Australia,Hayman Solar Farm,-20.4877,147.7449,solar
Australia,Hallett 2 Hallet Hill Wind Farm,-33.5226,138.8552,wind
Austria,Pichlern,47.65,13.6667,hydro
Austria,Rabenstein,47.35,13.6833,hydro
Austria,Retznei,46.7333,15.5667,hydro
Austria,Rodundwerk I,47.085,9.8813,hydro
Austria,Simmering,48.1815,16.4334,gas
Austria,Rosenau,48.489,14.6288,hydro
Austria,Schonau,48.3946,14.7302,hydro
Austria,Schwabeck,46.658,14.8726,hydro
Austria,Schwarzach,47.3152,13.1389,hydro
Austria,Rodundwerk II,47.0847,9.8744,hydro
Austria,Rosegg-St. James,46.5696,14.0268,hydro
Austria,Passau-Ingling,48.5536,13.4371,hydro
Austria,Peggau,47.2,15.35,hydro
Austria,Paternion,46.7209,13.6453,hydro
Austria,Ottensheim-Wilhering,48.3166,14.1512,hydro
Austria,Obervogau,46.745,15.5847,hydro
Austria,Obervermuntwerk,46.9271,10.0539,hydro
Austria,Oberaudorf Ebbs,47.6413,12.1989,hydro
Austria,Nussdorf near Vienna,47.2167,14.4833,hydro
Austria,St. Georgen,47.5333,14.3667,hydro
Austria,Neuötting,40.1247,-8.7751,hydro
Austria,Niklai,46.8167,13.3167,hydro
Austria,Pernegg,47.3598,15.3424,hydro
Austria,St. Johann,47.3386,13.1974,hydro
Austria,Walgauwerk,47.192,9.6815,hydro
Austria,St. Pantaleon,48.0076,12.8942,hydro
Austria,Mellach run power plant,46.8833,15.5167,hydro
Austria,Ybbs-Persenbeug,48.1892,15.0682,hydro
Austria,Windpark Bruck-Göttlesbrunn,48.095,16.89,wind
Austria,Wind Park Petronell-Carnuntum II,48.09,16.844,wind
Austria,Wind Park Hollern II,48.09,16.844,wind
Austria,Wind Park Bruck an der Leitha,48.0338,16.7264,wind
Austria,Weyer,48.1465,14.1176,hydro
Austria,Werfen-Pfarrwerfen,47.4698,13.1945,hydro
Austria,Weissenegg,46.8167,15.8667,hydro
Austria,Wallsee-Mitterkirchen,48.1666,14.6953,hydro
Austria,Wallnerau underwater stage,47.3833,12.6,hydro
Austria,Wallnerau Salzach stage,47.316,13.141,hydro
Austria,Villach,46.6329,13.8294,hydro
Austria,Vienna-Freudenau,48.1766,16.4814,hydro
Austria,Vermuntwerk,46.9684,10.0599,hydro
Austria,Urreiting,47.3749,13.2101,hydro
Austria,Tuxbach,47.1485,11.8225,hydro
Austria,Triebenbach,47.5,14.4667,hydro
Austria,Timelkam,48.0122,13.5895,gas
Austria,Ternberg,47.9333,14.35,hydro
Austria,Steinfeld,46.7656,13.2717,hydro
Austria,Staning,48.1007,14.4568,hydro
Austria,St. Veit,47.3214,13.1744,hydro
Austria,St. Martin,47.4467,15.2849,hydro
Austria,Melk,48.2232,15.3042,hydro
Austria,Kopswerk II,46.975,10.043,hydro
Austria,Mandling,47.4,13.5667,hydro
Austria,Greifenstein,48.3553,16.2424,hydro
Austria,Gratkorn,47.1333,15.35,hydro
Austria,Gerlos,47.2342,11.8997,hydro
Austria,Gaming,48.1766,16.4813,hydro
Austria,Gabersdorf,46.7772,15.5842,hydro
Austria,Friesach,47.1667,15.3333,hydro
Austria,Freudenau Danube,48.1764,16.4811,hydro
Austria,Fisching,47.1667,14.7333,hydro
Austria,Ferlach Maria Rain,46.5462,14.2985,hydro
Austria,Feldkirchen,46.8638,13.3355,hydro
Austria,Hieflau,47.6,14.7333,hydro
Austria,Feistritz-Ludmannsdorf,46.5347,14.1712,hydro
Austria,Ering-Frauenstein,48.2194,13.16,hydro
Austria,Donaustadt,48.2,16.4633,gas
Austria,Dionysen,47.4167,15.2833,hydro
Austria,Braunau-Simbach,48.244,13.006,hydro
Austria,Bischofshofen,47.407,13.2205,hydro
Austria,Aschach,48.3853,14.023,hydro
Austria,Arnstein,47.0167,15.1667,hydro
Austria,Altenmarkt,46.7667,15.55,hydro
Austria,Abwinden-Asten,48.248,14.4305,hydro
Austria,Mayrhofen,47.1581,11.8501,hydro
Austria,Erzbach,47.6,14.7333,hydro
Austria,Hieflau-Erzbach,47.6,14.7333,hydro
Austria,Funsingau,47.2354,12.0583,hydro
Austria,KW Amlach,46.8142,12.7618,hydro
Austria,Malta main stage,47.0659,13.3539,hydro
Austria,Malta Secondary school,47.0659,13.3539,hydro
Austria,Lünerseewerk,47.074,9.874,hydro
Austria,Low Tuxbach - Small power plant Stillupp,47.1485,11.8225,hydro
Austria,Jochenstein,48.5184,13.7076,hydro
Austria,Leoben,47.3833,15.1,hydro
Austria,Lebring,46.8522,15.5383,hydro
Austria,Laufnitzdorf,47.3,15.3167,hydro
Austria,Landl,47.65,14.7167,hydro
Austria,Krippau,47.6833,14.7,hydro
Austria,Kreuzeck days storage,46.8727,13.3117,hydro
Austria,Kreuzbergmaut,47.4412,13.2108,hydro
Austria,Losenstein,47.9243,14.4367,hydro
Austria,Klammsee,47.2591,12.7389,hydro
Austria,Klaus,47.8314,14.1572,hydro
Austria,KW Imst,47.2122,10.7215,hydro
Austria,KW Jenbach,47.3932,11.7886,hydro
Austria,KW Kühtai,47.2078,11.0057,hydro
Austria,KW Silz,47.2696,10.9678,hydro
Austria,KW Kaunertal,47.0678,10.6652,hydro
Austria,Kaprun Oberstufe,47.1968,12.7192,hydro
Austria,Kaprun main stage,47.2591,12.7389,hydro
Austria,Kellerberg,46.67,13.6886,hydro
Austria,Kaprun Limberg II,47.1985,12.7223,hydro
Azerbaijan,Yenikend,40.9193,46.2829,hydro
Azerbaijan,Sangachal ES,40.1794,49.47,gas
Azerbaijan,Varvara,40.6837,47.0926,hydro
Azerbaijan,Sumqayit,40.6036,49.6332,gas
Azerbaijan,Shimal,40.4995,50.2077,gas
Azerbaijan,Shamkir,40.9487,46.168,hydro
Azerbaijan,Mingechevir,40.79,47.0287,hydro
Azerbaijan,Baku ES,40.3734,49.9192,gas
Azerbaijan,Janub,39.8943,48.9173,gas
Azerbaijan,Gusar,41.3979,48.3308,hydro
Azerbaijan,Baku TEC,40.3734,49.9192,gas
Azerbaijan,Azerbaijan TPP,40.78,46.9901,oil
Azerbaijan,Astara ES,38.456,48.875,gas
Azerbaijan,Khachmaz ES,41.4635,48.806,gas
Bahrain,Rifa'a Power Station,26.1199,50.5889,gas
Bahrain,Sitra Power an Water Station,26.1833,50.6237,gas
Bahrain,Hawar Power ad Water Station,26.1981,50.5919,oil
Bahrain,Hidd Power and Water station 1,26.2223,50.6621,gas
Bahrain,Alba Power Station,26.0945,50.6008,gas
Bahrain,Al Ezzel Power Station,26.2175,50.6595,gas
Bahrain,Al Dur Power and Water,25.9714,50.6076,gas
Bahrain,Awali,26.1,50.58,solar
Bangladesh,Madanganj (Summit),23.59,90.5153,oil
Bangladesh,Meghnaghat CCPP,23.6112,90.6007,gas
Bangladesh,Narshingdi (Doreen),23.9186,90.6926,oil
Bangladesh,Noapara (khanjahan ali),22.3602,91.7812,oil
Bangladesh,Northen 55 MW,23.8094,90.2433,oil
Bangladesh,Pagla (DPA),23.6584,90.4584,oil
Bangladesh,Patenga 50 MW,22.2385,91.8129,oil
Bangladesh,Rangpur GT,25.7233,89.2432,oil
Bangladesh,Santahar Peaking,24.7972,88.9839,oil
Bangladesh,Shahjibazar 330 MW,24.2532,91.3751,gas
Bangladesh,Shiddirganj ST,23.6846,90.517,gas
Bangladesh,Shikalbaha Peaking (GT),22.3227,91.8651,oil
Bangladesh,Siddirgonj (Desh),23.6825,90.5252,oil
Bangladesh,Kodda Gajipur,23.9904,90.3429,oil
Bangladesh,Summit Barisal 110MW,22.659,90.3364,gas
Bangladesh,Summit Bibiana-2,24.6358,91.6587,gas
Bangladesh,Summit Power  Comilla,23.44,91.1869,gas
Bangladesh,Summit Power  Maona,24.2276,90.4201,gas
Bangladesh,Summit Power (Madhabdi+Ashulia),23.8901,90.0323,gas
Bangladesh,Summit Power Rupgonj,23.755,90.5496,gas
Bangladesh,Sylhet (Energyprima),24.9096,91.83,gas
Bangladesh,Teknaf,20.982,92.256,solar
Bangladesh,Thakurgaon (RZ),26.0383,88.4256,oil
Bangladesh,Titas(Dautkandi),23.5461,90.7779,oil
Bangladesh,Tongi GT,23.897,90.4123,gas
Bangladesh,Ullapara (Summit),24.3071,89.5512,gas
Bangladesh,Siddhirganj (Dutch Bangla),24.3884,89.7436,gas
Bangladesh,Khulna (KPCL-2),22.8646,89.5357,gas
Bangladesh,Mymensingh,24.7611,90.4193,gas
Bangladesh,Katakhali (Peaking),24.366,88.6763,oil
Bangladesh,Amnura,24.6301,88.4006,oil
Bangladesh,Ashuganj (Aggreko),24.0426,91.0158,gas
Bangladesh,Baghabari GT 1,24.1361,89.5933,gas
Bangladesh,Barabkunda (Regent),22.5713,91.6841,oil
Bangladesh,Barishal GT-unit-1 2,22.6588,90.3373,gas
Bangladesh,Barupukuria ST 1,25.5502,88.9527,coal
Bangladesh,Bera Peaking,24.0895,89.6176,oil
Bangladesh,Kathpotti 52 mw,23.5699,90.4804,oil
Bangladesh,Bhola CCPP GT-1 2 ST,22.4786,90.7101,gas
Bangladesh,Bogra GBB,24.8408,89.3506,gas
Bangladesh,CLCPC Keranigonj,23.6473,90.3473,oil
Bangladesh,Chittagong Roazan,22.457,91.9784,gas
Bangladesh,Faridpur,23.6183,89.7733,oil
Bangladesh,Bheramara GT (Unit-1 2 3),24.0487,89.0173,oil
Bangladesh,Feni (Doreen),23.9186,90.6926,gas
Bangladesh,Fenchuganj (Barakatullah),24.6863,91.9189,gas
Bangladesh,Karanigonj (Powerpac),23.6783,90.4295,oil
Bangladesh,Kaptai Hydro:Unit-1 2 3 4 5,22.495,92.216,hydro
Bangladesh,Jhulda,22.2972,91.8062,oil
Bangladesh,Jamalpur RPP,24.9103,89.9607,oil
Bangladesh,Jangalia (Summit),23.4289,91.17,gas
Bangladesh,Hobiganj (Confidence-EP),24.2639,91.379,gas
Bangladesh,Hathazari,22.4918,91.8051,oil
Bangladesh,Gopalganj Peaking,23.9797,90.637,oil
Bangladesh,Gopalganj,26.585,84.145,solar
Bangladesh,Ghorasal ST :Unit-3,23.9797,90.637,gas
Bangladesh,Horippur Power CCPP,23.6839,90.5314,gas
Belarus,Mozyr Thermal Power Plant Belarus,51.9049,29.3136,gas
Belarus,Minsk-4 CHP CCGT Power Plant,53.872,27.4022,gas
Belarus,Minsk-5 CHP CCGT Power Plant,53.612,27.954,gas
Belarus,Mogilev CHP-2 Thermal Power Plant Ukraine,53.8128,30.3421,gas
Belarus,Novopolotsk Thermal Power Plant Belarus,55.5265,28.549,gas
Belarus,Minsk-3 CHP CCGT Power Plant,53.8799,27.6476,gas
Belarus,Smorgon,54.41,26.48,solar
Belarus,Zhodino CHP CCGT Power Plant,54.0941,28.3505,gas
Belarus,Svetlogorsk CHP Power Plant Belarus,52.6274,29.7708,gas
Belarus,Vitebsk Thermal Power Plant Belarus,55.1689,30.1355,gas
Belarus,Orsha Cogeneration CCGT Power Plant Belarus,54.4809,30.3926,gas
Belarus,Lukoml Thermal Power Plant Belarus,54.6803,29.1341,gas
Belarus,Blizhnyaya Rechitsa 2,53.625,31.6,solar
Belarus,Grodno CHP-2 Power Plant Belarus,53.6675,23.9272,gas
Belarus,Lida Power Plant Belarus,53.9011,25.291,gas
Belarus,Bereza SDPP Thermal Power Plant Belarus,52.4538,25.1926,gas
Belarus,Bobruisk CHP-2 Power Plant Belarus,53.1895,29.2055,gas
Belarus,Bragin EP,51.784,30.2559,solar
Belarus,Blizhnyaya Rechitsa,53.64,31.55,solar
Belarus,Chechevicy,52.92,30.85,solar
Belarus,Elsk,51.77,29.155,solar
Belarus,Gomel-1 CHP Power Plant Belarus,52.4141,31.0031,gas
Belarus,Gomel-2 CHP Power Plant Belarus,52.4492,30.8167,gas
Belarus,Brahin,51.797,30.209,solar
Belgium,Northwind,51.6186,2.8998,wind
Belgium,RODENHUIZE WIND,51.1357,3.7878,wind
Belgium,RODENHUIZE 4,51.1341,3.777,biomass
Belgium,RINGVAART STEG,51.1049,3.7257,gas
Belgium,PLATE TAILLE T,50.1884,4.3861,hydro
Belgium,Noordschote TJ,50.9548,2.8103,oil
Belgium,LANGERLO 1,50.9405,5.4906,coal
Belgium,Loghidden City,51.273,4.288,solar
Belgium,La Vierre,49.733,5.377,hydro
Belgium,LANGERLO 4 REPOWERING,50.934,5.4784,gas
Belgium,SCHELLE WIND,51.1265,4.3226,wind
Belgium,LANGERBRUGGE STORA ST 2,51.05,3.7167,waste
Belgium,Kristal,51.203,5.265,solar
Belgium,Marcinelle Energie (Carsid),50.4138,4.4067,gas
Belgium,Schaerbeek Siomab ST1,50.8504,4.3488,waste
Belgium,Thorntonbank - C-Power - Area SW,51.54,2.921,wind
Belgium,TIHANGE 1N,50.5342,5.2751,nuclear
Belgium,Zwijndrecht Lanxess ST,51.2382,4.3408,gas
Belgium,Zwijndrecht Lanxess GT,51.2382,4.3408,gas
Belgium,Zelzate TJ,51.1896,3.8078,oil
Belgium,Zelzate 2 Knippegroen,51.1587,3.8068,gas
Belgium,Zeebrugge TJ,51.329,3.1819,oil
Belgium,Zeebrugge 2 Fluxys,51.329,3.1819,gas
Belgium,Zedelgem TJ,51.1424,3.1368,oil
Belgium,ZEEBRUGGE WIND,51.3596,3.2219,wind
Belgium,Windvision Estinnes WIND,50.4116,4.0804,wind
Belgium,Wilrijk Isvag,51.1673,4.3951,waste
Belgium,Wilmarsdonk,51.2709,4.3812,solar
Belgium,WM Park Powerport Zeebrugge,51.329,3.1819,wind
Belgium,Intradel Herstal,50.6642,5.6235,waste
Belgium,Thorntonbank - C-Power - Area NE,51.556,2.9689,wind
Belgium,TIHANGE 3,50.5342,5.2751,nuclear
Belgium,T-power Beringen,51.0586,5.1056,gas
Belgium,Incinerateur THUMAIDE (IPALLE),50.5415,3.6301,waste
Belgium,SAINT-GHISLAIN STEG,50.4719,3.8248,gas
Belgium,INESCO WKK,51.2198,4.3266,gas
Belgium,AALTER TJ,51.0902,3.4469,oil
Belgium,ANGLEUR TG 41,50.6177,5.5837,gas
Belgium,AWIRS 4,50.5851,5.418,biomass
Belgium,Aalst Syral GT,50.936,4.0355,gas
Belgium,Aalst Syral ST,50.936,4.0355,gas
Belgium,Amercoeur 1 R TGV,50.4304,4.3955,gas
Belgium,Aspiravi Wuustwezel,51.2488,3.2166,wind
Belgium,BEERSE TJ,51.3193,4.853,oil
Belgium,BUDA TJ,50.9079,4.4155,oil
Belgium,BUTGENBACH,50.4359,6.2106,hydro
Belgium,Belwind Phase 1,51.66,2.8,wind
Belgium,Beveren 2 Indaver,51.2119,4.2563,waste
Belgium,Beveren Ineos Phenolchemie,51.2119,4.2563,gas
Belgium,CIERREUX TJ,50.2444,5.9302,oil
Belgium,DOEL 4,51.3254,4.2597,nuclear
Belgium,COO,50.3849,5.8618,hydro
Belgium,DROGENBOS GT0,50.8023,4.299,gas
Belgium,HU MONSIN,50.6517,5.6308,hydro
Belgium,HU LIXHE,50.7517,5.6863,hydro
Belgium,HU IVOZ-RAMET,50.5922,5.4613,hydro
Belgium,HU GRAND-MALADES,50.4665,4.8992,hydro
Belgium,HU ANDENNE,50.4928,5.07,hydro
Belgium,DROGENBOS DM 51,50.8023,4.299,gas
Belgium,HERDERSBRUG WIND,51.2622,3.2132,wind
Belgium,HU AMPSIN-NEUVILLE,50.5335,5.2962,hydro
Belgium,HEID-DE-GOREUX 1,50.426,5.7328,hydro
Belgium,HAM-GENT WKK,51.05,3.7167,gas
Belgium,Froidchapelle Wind,50.2233,4.32,wind
Belgium,Electrawinds biomassa Oostende,51.2234,2.9119,waste
Belgium,Deux-Acren TJ,50.7303,3.8531,oil
Belgium,DROGENBOS TGV,50.8023,4.299,gas
Belgium,HERDERSBRUG STEG,51.2629,3.2112,gas
Belgium,IVBO,51.2089,3.2242,waste
Benin,Akpakpa,6.3506,2.4295,gas
Benin,Cotonou,6.4263,2.3066,oil
Bhutan,Rangjung Small Hydroelectric Power Plant Bhutan,27.3567,91.6497,hydro
Bhutan,Tala Hydroelectric Power Plant Bhutan,27.036,89.5953,hydro
Bhutan,Chhukha Hydroelectric Power Plant Bhutan,27.1104,89.5313,hydro
Bhutan,Basochhu Hydroelectric Power Plant Bhutan,27.4254,89.9043,hydro
Bhutan,Kurichhu Hydro-electric Power Station Bhutan,27.2162,91.2035,hydro
Bolivia,Zongo Hydroelectric Power Plant Bolivia,-16.2719,-68.1227,hydro
Bolivia,Yunchara,-21.83,-65.23,solar
Bolivia,Yanacachi Norte Hydroelectric Power Plant Bolivia,-16.3887,-67.7373,hydro
Bolivia,Valle Hermoso Power Plant Bolivia,-17.4302,-66.1169,gas
Bolivia,Uyuni Colcha K,-20.75,-67.65,solar
Bolivia,Tiquimani Hydroelectric Power Plant Bolivia,-16.2072,-68.1235,hydro
Bolivia,Santa Rosa Hydroelectric Power Plant Bolivia,-16.1318,-68.1095,hydro
Bolivia,Santa Isabel Hydroelectric Power Plant Bolivia,-17.1916,-65.8232,hydro
Bolivia,Santa Cruz Power Plant Bolivia,-17.7549,-63.1398,gas
Bolivia,Karachipampa Power Plant Bolivia,-19.551,-65.722,gas
Bolivia,Huaji Hydroelectric Power Plant Bolivia,-16.0416,-67.9566,hydro
Bolivia,Harca Hydroelectric Power Plant Bolivia,-16.0784,-68.0336,hydro
Bolivia,Sainani Hydroelectric Power Plant Bolivia,-16.124,-68.09,hydro
Bolivia,Entre Rios Power Plant Bolivia,-21.52,-64.1714,gas
Bolivia,Aranjuez Power Plant Bolivia,-19.0394,-65.2697,gas
Bolivia,Guaracachi CCGT Power Plant Bolivia,-17.7875,-63.1521,gas
Bolivia,Bulo Bulo OCGT Power Plant Bolivia,-17.2424,-64.5409,gas
Bolivia,Cahua Hydroelectric Power Plant Bolivia,-16.0456,-67.9939,hydro
Bolivia,Carrasco OCGT Power Plant Bolivia,-17.2125,-64.5275,gas
Bolivia,Botijlaca Hydroelectric Power Plant Bolivia,-16.1925,-68.1405,hydro
Bolivia,Chururaqui Hydroelectric Power Plant Bolivia,-16.105,-68.067,hydro
Bolivia,Cobija,-11.025,-68.815,solar
Bolivia,Corani Hydroelectric Power Plant Bolivia,-17.2122,-65.8758,hydro
Bolivia,Cutichucho Hydroelectric Power Plant Bolivia,-16.1425,-68.1158,hydro
Bolivia,El Alto (El Kenko) Power Plant Bolivia,-16.5653,-68.1811,gas
Bolivia,Chojlla Hydroelectric Power Plant Bolivia,-16.4124,-67.7725,hydro
Bosnia and Herzegovina,Mostarsko Blato Hydroelectric Power Plant Bosnia and Herzegovina,43.2989,17.794,hydro
Bosnia and Herzegovina,Visegrad Hydroelectric Power Plant Bosnia and Herzegovina,43.7603,19.2891,hydro
Bosnia and Herzegovina,Ugljevik CHP Coal Power Plant Bosnia and Herzegovina,44.6829,18.9671,coal
Bosnia and Herzegovina,Tuzla CHP Power Plant Bosnia and Herzegovina,44.5215,18.6056,coal
Bosnia and Herzegovina,Trebinje II Hydroelectric Power Plant Bosnia and Herzegovina,42.7066,18.3805,hydro
Bosnia and Herzegovina,Trebinje I Hydroelectric Power Plant Bosnia and Herzegovina,42.7338,18.4971,hydro
Bosnia and Herzegovina,Salakovac Hydroelectric Power Plant Bosnia and Herzegovina,43.4478,17.8369,hydro
Bosnia and Herzegovina,Rama Hydroelectric Power Plant Bosnia and Herzegovina,43.747,17.6758,hydro
Bosnia and Herzegovina,Mostar Hydroelectric Power Plant Bosnia and Herzegovina,43.3776,17.8449,hydro
Bosnia and Herzegovina,Pec Mlini Hydroelectric Power Plant Bosnia and Herzegovina,43.3375,17.3261,hydro
Bosnia and Herzegovina,Kakanj CHP Power Plant Bosnia and Herzegovina,44.0899,18.1143,coal
Bosnia and Herzegovina,Bocac Hydroelectric Power Plant Bosnia and Herzegovina,44.5075,17.1618,hydro
Bosnia and Herzegovina,Capljina Pumped Storage Power Plant Bosnia and Herzegovina,43.0133,17.8041,hydro
Bosnia and Herzegovina,Dubrovnik Hydroelectric Power Plant Bosnia and Herzegovina,42.6037,18.2357,hydro
Bosnia and Herzegovina,Gacko Coal CHP Power Plant Bosnia and Herzegovina,43.1724,18.5128,coal
Bosnia and Herzegovina,Krupa Hydroelectric Power Plant Bosnia and Herzegovina,44.5624,17.135,hydro
Bosnia and Herzegovina,Jablanica Hydroelectric Power Plant Bosnia and Herzegovina,43.6924,17.7325,hydro
Bosnia and Herzegovina,Jajce I Hidroelektrana Bosnia and Herzegovina,44.3774,17.2816,hydro
Bosnia and Herzegovina,Jajce II Hidroelektrana Bosnia and Herzegovin,44.4279,17.2404,hydro
Bosnia and Herzegovina,Grabovica Hydroelectric Power Plant Bosnia and Herzegovina,43.5872,17.7189,hydro
Botswana,Morpule,-22.5223,27.0491,coal
Botswana,Sua Pan Soda Ash,-21.1667,27.5167,coal
Brazil,Pindorama,-10.1561,-36.3391,biomass
Brazil,Pinhal,-22.2833,-46.7833,hydro
Brazil,Pinho Fleck,-26.2439,-52.4381,hydro
Brazil,Pioneiros,-20.7255,-50.9526,biomass
Brazil,Pioneiros II,-20.7263,-50.9525,biomass
Brazil,Pipoca,-19.75,-41.7667,hydro
Brazil,Piranhas,-16.5833,-51.8167,hydro
Brazil,Pirajú,-23.1544,-49.38,hydro
Brazil,Pirapama,-8.224,-35.272,biomass
Brazil,Pirapanema,-21.0172,-42.4408,hydro
Brazil,Pindaí,-14.2021,-42.6589,wind
Brazil,Pirapetinga,-21.1208,-41.72,hydro
Brazil,Pirapora,-23.383,-46.983,hydro
Brazil,Piracicaba (Antiga Boyes),-22.7083,-47.6333,hydro
Brazil,Pilões,-14.0292,-42.6161,wind
Brazil,Pezzi,-28.7912,-50.5643,hydro
Brazil,Piedade,-18.6889,-49.0089,hydro
Brazil,Peróxidos do Brasil,-25.4739,-49.2788,oil
Brazil,Pesqueiro,-24.1328,-49.6358,hydro
Brazil,Peti,-19.8814,-43.3678,hydro
Brazil,Petribu,-7.9058,-35.2847,biomass
Brazil,Petrocoque,-23.8669,-46.42,oil
Brazil,Petroflex,-22.782,-43.3025,gas
Brazil,Pilar,-23.8359,-47.6565,hydro
Brazil,Petrolina,-9.3707,-40.5597,oil
Brazil,Petroquimicasuape,-8.388,-35.0055,oil
Brazil,Petrorecôncavo,-12.4032,-38.4969,gas
Brazil,Pirapora I,-17.416,-44.92,solar
Brazil,Piabanha,-22.2022,-43.1553,hydro
Brazil,Picada,-21.8849,-43.5408,hydro
Brazil,Picada 48,-29.5833,-51.1278,hydro
Brazil,Petropolitana,-22.4756,-43.1544,hydro
Brazil,Pirapora II,-17.4,-44.88,solar
Brazil,Pirelli Santo André,-23.6585,-46.4966,oil
Brazil,Piratininga,-23.6963,-46.6686,oil
Brazil,Porto Raso,-24.0625,-47.4158,hydro
Brazil,Porto Primavera (Eng° Sérgio Motta),-22.478,-52.9561,hydro
Brazil,Porto Góes,-23.2092,-47.2964,hydro
Brazil,Porto Franco,-11.8142,-46.7831,hydro
Brazil,Porto Estrela,-19.1167,-42.6592,hydro
Brazil,Porto Colômbia,-20.1242,-48.5719,hydro
Brazil,Porto Alegre do Norte,-10.9074,-51.6214,oil
Brazil,Porto Alegre,-8.9378,-35.7506,biomass
Brazil,Ponte de Pedra,-17.6103,-54.8269,hydro
Brazil,Ponte Alta,-19.4103,-54.4931,hydro
Brazil,Pontal do Prata,-18.7414,-52.2867,hydro
Brazil,Pontal 3 B,-30.2561,-50.7661,wind
Brazil,Pontal 2 B,-30.2779,-50.7978,wind
Brazil,Pontal 2 A,-30.2648,-50.7834,wind
Brazil,Ponta do Costa,-22.875,-42.0095,gas
Brazil,Polifrigor,-22.229,-48.7095,oil
Brazil,Policam,-21.7989,-41.3338,gas
Brazil,Pirauá,-7.4953,-35.4955,wind
Brazil,Piraí,-24.522,-49.9395,biomass
Brazil,Pirelli Campinas,-22.9371,-47.1405,oil
Brazil,Pery,-27.4578,-50.6406,hydro
Brazil,Pitangas,-19.08,-42.685,hydro
Brazil,Pitinga,-0.8664,-59.6047,hydro
Brazil,Pirapora III,-17.4,-44.88,solar
Brazil,Pito,-27.5801,-51.3543,hydro
Brazil,Planaltina,-13.9879,-42.6389,wind
Brazil,Planalto,-18.7833,-52.3833,hydro
Brazil,Plano Alto,-26.9578,-52.3404,hydro
Brazil,Plantar,-19.4299,-44.325,biomass
Brazil,Plastseven,-22.148,-42.41,oil
Brazil,Plaza Macaé,-22.3891,-41.7983,oil
Brazil,Pizzatto,-26.424,-51.3065,biomass
Brazil,Perobálcool,-23.9052,-53.463,biomass
Brazil,Peixoto Gonçalves,-10.316,-36.5695,oil
Brazil,Pereira Passos,-22.6864,-43.8253,hydro
Brazil,Passo Real,-29.0167,-53.1833,hydro
Brazil,Passo Fundo,-27.55,-52.7333,hydro
Brazil,Passo Ferraz,-26.7546,-52.3838,hydro
Brazil,Passa Tempo,-21.724,-54.4916,biomass
Brazil,Parque Eólico dos Índios 3,-29.9831,-50.3324,wind
Brazil,Parque Eólico dos Índios 2,-30.0194,-50.3362,wind
Brazil,Parque Eólico dos Índios,-29.9915,-50.288,wind
Brazil,Parque Eólico do Horizonte,-26.6,-52.7167,wind
Brazil,Parque Eólico de Palmares,-30.458,-50.3906,wind
Brazil,Parque Eólico de Osório,-29.9631,-50.2826,wind
Brazil,Parque Eólico de Beberibe,-4.1936,-38.0766,wind
Brazil,Parque Eólico Sangradouro,-29.9324,-50.2984,wind
Brazil,Parque Eólico Elebrás Cidreira 1,-30.0791,-50.1721,wind
Brazil,Parque Eólico Cabeço Preto VI,-5.4521,-35.9519,wind
Brazil,Parque Eólico Cabeço Preto V,-5.4799,-36.0044,wind
Brazil,Parque Eólico Cabeço Preto IV,-5.4484,-35.9561,wind
Brazil,Parque Eólico Cabeço Preto III,-5.401,-35.9843,wind
Brazil,Paracambi,-22.6833,-43.7667,hydro
Brazil,Paracatu,-17.34,-47.25,solar
Brazil,Paraibuna,-21.76,-43.3405,gas
Brazil,Paranapanema,-22.5463,-51.8189,biomass
Brazil,Paranatex,-23.5723,-51.4144,oil
Brazil,Paranatinga II,-13.8517,-53.2558,hydro
Brazil,Passo São João,-28.1394,-55.0478,hydro
Brazil,Paraíso I,-19.0,-53.0,hydro
Brazil,Pardo,-21.9042,-46.2681,hydro
Brazil,Pardos,-26.4458,-50.9878,hydro
Brazil,Parecis,-13.0742,-58.9754,hydro
Brazil,Parintins,-2.6291,-56.7311,oil
Brazil,Parnaíba IV,-4.8141,-44.3436,gas
Brazil,Parque Eólico Cabeço Preto,-5.4187,-35.954,wind
Brazil,Paraúna,-18.6381,-43.9647,hydro
Brazil,Passo de Ajuricaba,-28.2825,-53.8097,hydro
Brazil,Passo do Inferno,-29.2833,-50.75,hydro
Brazil,Passo do Meio,-28.8,-50.6,hydro
Brazil,Pedra do Garrafão,-21.1986,-41.3764,hydro
Brazil,Pedra do Gerônimo,-9.0672,-38.1448,wind
Brazil,Pedra do Reino,-9.5175,-40.8864,wind
Brazil,Pedra do Reino III,-9.4986,-40.879,wind
Brazil,Pedra do Sal,-2.8262,-41.7071,wind
Brazil,Pedrinho I,-24.7875,-51.43,hydro
Brazil,Pedra do Cavalo,-12.5852,-38.9986,hydro
Brazil,Pedro Affonso Junqueira (Antiga Antas I),-21.75,-46.6,hydro
Brazil,Peixe,-22.6083,-46.4417,hydro
Brazil,Peixe Angical,-12.2391,-48.3824,hydro
Brazil,Porto Salgado,-2.8398,-41.727,wind
Brazil,Pelado,-6.0135,-36.4343,wind
Brazil,Pelourinho,-14.5292,-42.5867,wind
Brazil,Pequi,-16.0033,-55.1153,hydro
Brazil,Pedro Afonso,-9.1941,-48.1335,biomass
Brazil,Pernambuco III,-7.8585,-35.008,oil
Brazil,Pedra Preta,-5.4268,-35.8534,wind
Brazil,Pedra Branca,-9.8746,-41.0957,wind
Brazil,Passos,-20.5444,-46.6461,biomass
Brazil,Pau D´Alho,-22.7681,-50.1118,biomass
Brazil,Pau Ferro,-9.0625,-38.1186,wind
Brazil,Pau Ferro I,-7.8568,-35.0094,oil
Brazil,Pau Sangue,-8.5922,-35.3914,hydro
Brazil,Paulicéia,-21.2789,-51.7723,biomass
Brazil,Pedra Furada,-8.5164,-35.4839,hydro
Brazil,Paulo Afonso I,-9.3984,-38.2026,hydro
Brazil,Paulo Afonso III,-9.3984,-38.2026,hydro
Brazil,Paulo Afonso IV,-9.4132,-38.2106,hydro
Brazil,Paulo Mascarenhas,-20.24,-42.91,hydro
Brazil,Paísa,-10.288,-36.4903,biomass
Brazil,Pederneiras,-22.9696,-47.7851,biomass
Brazil,Pedra,-13.8688,-40.2351,hydro
Brazil,Paulo Afonso II,-9.3984,-38.2026,hydro
Brazil,Porto Seguro,-13.8629,-42.6727,wind
Brazil,Porto do Itaqui (Antiga Termomaranhão),-2.5246,-44.2961,coal
Brazil,Porto das Barcas,-2.8207,-41.7418,wind
Brazil,Rio do Ouro,-28.4464,-49.6076,wind
Brazil,Rio de Pedras,-20.2139,-43.7317,hydro
Brazil,Rio Vermelho 2,-21.3524,-51.3564,biomass
Brazil,Rio Vermelho,-21.4874,-51.3604,biomass
Brazil,Rio Verde,-14.164,-42.6006,wind
Brazil,Rio Timbó,-26.4936,-50.7864,hydro
Brazil,Rio Tigre,-27.1231,-52.7658,hydro
Brazil,Rio São Marcos,-29.0358,-51.0939,hydro
Brazil,Rio Suspiro,-15.0625,-53.9433,hydro
Brazil,Rio Preto da Eva,-2.695,-59.6905,oil
Brazil,Rio Prata,-13.6533,-59.8878,hydro
Brazil,Rio Piracicaba,-19.8464,-43.1228,hydro
Brazil,Rio Pardo,-23.0578,-49.1169,biomass
Brazil,Rio Mato,-26.7989,-51.9503,hydro
Brazil,Rio Madeira,-8.7205,-63.9053,oil
Brazil,Rio Itaiozinho,-26.6547,-52.9433,hydro
Brazil,Rio Fortuna,-28.1217,-49.1356,hydro
Brazil,Riachão (Antiga Santa Edwiges I),-14.3128,-46.2153,hydro
Brazil,Riachão I,-5.523,-35.4285,wind
Brazil,Riachão II,-5.5694,-35.4473,wind
Brazil,Riachão IV,-5.5211,-35.469,wind
Brazil,Riachão VI,-5.5376,-35.4467,wind
Brazil,Riachão VII,-5.5778,-35.464,wind
Brazil,Rio do Peixe (Casa de Força I e II),-21.6267,-46.7906,hydro
Brazil,Ribeirão,-8.5357,-35.3865,biomass
Brazil,Rickli,-24.9565,-50.111,biomass
Brazil,Rieger Agropecuária,-12.4533,-45.1917,hydro
Brazil,Rigesa,-26.102,-50.3125,biomass
Brazil,Rio Branco,-11.9058,-62.1814,hydro
Brazil,Rio Branco I,-9.9616,-67.7819,oil
Brazil,Rio Branco II,-9.9646,-67.8289,oil
Brazil,Rical,-12.7276,-60.1283,biomass
Brazil,Rio do Poncho I,-28.005,-48.8794,hydro
Brazil,Rio do Sapo,-14.6116,-57.7408,hydro
Brazil,Rio dos Patos,-25.1755,-50.9403,hydro
Brazil,Rádio e Televisão Bandeirante,-23.544,-46.6265,oil
Brazil,Rádio e Televisão Record,-23.544,-46.6265,oil
Brazil,Rênic,-16.4811,-51.417,hydro
Brazil,Rômulo Almeida Unidade I (Antiga Usina de Cogeração Camaçari - FAFEN Energia),-12.6619,-38.1969,gas
Brazil,SDR-RC,-12.9769,-38.5075,oil
Brazil,SE04,-23.6461,-46.6386,oil
Brazil,Ruette,-21.0409,-48.7108,biomass
Brazil,SEDAL E1,-17.5907,-44.7089,oil
Brazil,SHOPPING CENTER IGUATEMI CAXIAS,-29.1735,-51.21,oil
Brazil,SHOPPING ESTAÇÃO,-25.4349,-49.258,oil
Brazil,SHOPPING ESTAÇÃO OFFICE,-25.4349,-49.258,oil
Brazil,SHOPPING MANAUS VIA NORTE,-2.9954,-59.9923,oil
Brazil,SHOPPING PARALELA,-12.9327,-38.3855,oil
Brazil,SHOPPING PATIO RORAIMA,2.8541,-60.703,oil
Brazil,SHOPPING CASTANHEIRA,-1.3977,-48.425,oil
Brazil,Riacho Preto,-11.9505,-46.7555,hydro
Brazil,Royal Palm Plaza,-22.9385,-47.0625,oil
Brazil,Rovema Bandeirantes,-9.626,-64.5244,oil
Brazil,Rio dos Índios,-27.2811,-52.7948,hydro
Brazil,Ripasa,-22.5945,-47.3542,biomass
Brazil,Risoleta Neves (Antiga Candonga),-20.2061,-42.8553,hydro
Brazil,Rodeio Bonito,-27.1106,-52.4806,hydro
Brazil,Rohden,-26.976,-49.9905,biomass
Brazil,Rondinha,-26.6825,-52.045,hydro
Brazil,Rovema-Triunfo,-9.293,-63.4586,oil
Brazil,Rondolândia,-10.8332,-61.4544,oil
Brazil,Rondon II,-11.9975,-60.6972,hydro
Brazil,Rondonópolis,-16.6694,-54.7358,hydro
Brazil,Rorainópolis,0.95,-60.4085,oil
Brazil,Rosa S.A. Indústria e Comércio de Produtos Agrícolas,-23.2392,-47.6141,biomass
Brazil,Rosal,-20.9167,-41.7,hydro
Brazil,Rosana,-22.6,-52.8694,hydro
Brazil,Rondon,-12.9036,-58.9128,hydro
Brazil,Porto Walter  BBF Acre,-8.2633,-72.7414,oil
Brazil,Rhodia Poliamida e Especialidades,-23.7548,-46.5717,oil
Brazil,Retiro Baixo,-18.8944,-44.7817,hydro
Brazil,Quirinópolis,-18.4252,-50.4417,biomass
Brazil,Queluz,-22.55,-44.8,hydro
Brazil,Queixada,-18.7342,-51.7952,hydro
Brazil,Queimado,-16.2089,-47.3217,hydro
Brazil,Quebra Queixo,-26.65,-52.5333,hydro
Brazil,QUÍMICA AMPARO SIMÕES FILHO FÁBRICA,-12.8389,-38.4384,oil
Brazil,QUÍMICA AMPARO SALTO,-23.1688,-47.2575,oil
Brazil,Púlpito,-28.471,-49.605,wind
Brazil,Pátio Cianê Shopping,-23.4916,-47.4511,oil
Brazil,Pumaty,-8.5579,-35.535,biomass
Brazil,Promissão (Mário Lopes Leão),-21.2961,-49.7831,hydro
Brazil,Primavera do Leste,-15.0948,-54.2107,biomass
Brazil,Primavera,-15.3819,-54.4197,hydro
Brazil,Presidente Médici  A  B,-31.5482,-53.6733,coal
Brazil,Presidente Goulart,-13.3336,-44.6328,hydro
Brazil,Presidente,-6.5747,-34.976,wind
Brazil,Precon Minas Gerais PL,-19.6341,-44.0044,oil
Brazil,Porto das Pedras,-19.4736,-52.5397,hydro
Brazil,Porto das Águas,-18.4581,-52.5995,biomass
Brazil,Porto do Delta,-2.8463,-41.6907,wind
Brazil,Pantanal,-15.9213,-55.215,biomass
Brazil,Porto do Pecém II,-3.5918,-38.8661,coal
Brazil,Potiguar,-5.8706,-35.2933,oil
Brazil,Quixaba,-4.5634,-37.6885,wind
Brazil,Potiguar III,-5.8688,-35.3046,oil
Brazil,Poxoréo (José Fragelli),-15.8356,-54.4083,hydro
Brazil,Poço Fundo,-21.7906,-46.1244,hydro
Brazil,Praia Formosa,-2.9051,-41.0392,wind
Brazil,Praia do Morgado,-2.8151,-40.2349,wind
Brazil,Prata,-26.7625,-53.6656,hydro
Brazil,Pratudão,-13.9972,-45.403,hydro
Brazil,Potirendaba (Antiga Cerradinho Potirendaba),-21.0999,-49.3177,biomass
Brazil,R & F Energia,-27.0922,-50.722,hydro
Brazil,RCE-AM,-8.0139,-34.8889,oil
Brazil,RCE-BV,-8.1136,-34.8972,oil
Brazil,Refinaria Henrique Lages (REVAP),-23.1811,-45.819,oil
Brazil,Refinaria Presidente Bernardes - RPBC,-23.891,-46.4155,oil
Brazil,Refinaria de Paulínea - REPLAN,-22.7246,-47.1189,oil
Brazil,Refrigerantes do Triângulo,-18.8724,-48.2514,oil
Brazil,Rei dos Ventos 1,-5.1009,-36.202,wind
Brazil,Rei dos Ventos 3,-5.119,-36.1632,wind
Brazil,Refinaria Duque de Caxias - REDUC,-22.7105,-43.2586,gas
Brazil,Reman,-3.1438,-59.9436,oil
Brazil,Renascença II,-5.307,-35.8887,wind
Brazil,Renascença III,-5.2953,-35.8957,wind
Brazil,Renascença IV,-5.2981,-35.9164,wind
Brazil,Renascença V,-5.2698,-35.8589,wind
Brazil,Renosa,-15.6427,-56.123,oil
Brazil,Retiro,-20.4363,-47.8882,hydro
Brazil,Renascença I,-5.3045,-35.8692,wind
Brazil,Retiro Velho,-18.8197,-52.1775,hydro
Brazil,Rede Elétrica Piquete - Itajubá - REPI,-22.5333,-45.3333,hydro
Brazil,Rações Patense - Itaúna,-20.0045,-44.5879,biomass
Brazil,REB Cassino I,-32.2188,-52.2018,wind
Brazil,REB Cassino II,-32.2103,-52.2114,wind
Brazil,REB Cassino III,-32.2008,-52.2209,wind
Brazil,REC POUSO ALEGRE SA,-22.2331,-45.876,oil
Brazil,RELEVOS,-8.108,-34.923,oil
Brazil,RIO ANIL SHOPPING,-2.5293,-44.2155,oil
Brazil,Recreio Shopping Center,-23.0174,-43.4791,oil
Brazil,RJO-AM,-22.9003,-43.1881,oil
Brazil,RN 15 - Rio do Fogo,-5.3097,-35.3867,wind
Brazil,RS-155,-28.3118,-53.895,hydro
Brazil,Rafard,-22.9974,-47.5202,biomass
Brazil,Rafitec Geração Diesel fab 01,-26.9453,-52.521,oil
Brazil,Rasgão,-23.38,-47.0322,hydro
Brazil,Rastro de Auto,-29.0619,-52.2181,hydro
Brazil,RJR,-22.9326,-43.3656,gas
Brazil,Panorâmica,-23.4957,-49.0289,biomass
Brazil,Palmeiras,-26.6667,-49.3333,hydro
Brazil,Pampeana,-14.8301,-57.9116,hydro
Brazil,Maron,-14.1337,-42.6024,wind
Brazil,Marituba,-10.1446,-36.5339,biomass
Brazil,Mario Fett (Antiga Rio do Peixe),-27.2072,-51.5117,hydro
Brazil,Marimbondo,-20.3011,-49.1967,hydro
Brazil,Marfrig Tucumã,-6.8424,-51.4236,oil
Brazil,Marfrig Tangará,-14.6282,-57.5403,oil
Brazil,Marfrig Rolim de Moura,-11.7232,-61.715,oil
Brazil,Marfrig Rio Verde,-17.8024,-50.9501,oil
Brazil,Marfrig Paranaíba,-19.5237,-51.3863,oil
Brazil,Marfrig Paranatinga,-14.4591,-54.03,oil
Brazil,Marfrig Mineiros,-16.639,-49.2653,oil
Brazil,Marfrig Chupinguaia,-12.5757,-60.8972,oil
Brazil,Marfrig Capão,-31.7678,-52.4062,oil
Brazil,Marfrig Bagé,-31.3519,-54.0266,oil
Brazil,Marfrig Alegrete,-29.7566,-55.857,oil
Brazil,Marfrig,-30.3324,-54.3105,oil
Brazil,Marechal Thaumaturgo  BBF Acre,-8.9439,-72.7864,oil
Brazil,Mar e Terra,-4.964,-36.9147,wind
Brazil,Marabá Gusa Siderúrgica,-5.3646,-49.1083,oil
Brazil,Maracajú,-21.3488,-55.4292,biomass
Brazil,Maracanaú I,-3.873,-38.6165,oil
Brazil,Maracanã,-14.3389,-57.6192,hydro
Brazil,Maracaí,-22.5711,-50.6442,biomass
Brazil,Martins,-9.464,-59.6949,biomass
Brazil,Marambaia,-4.8613,-42.7816,oil
Brazil,Maranhão IV (Antiga MC2 Joinville),-26.2875,-48.8785,gas
Brazil,Maranhão V (Antiga MC2 João Neiva),-19.754,-40.3765,gas
Brazil,Maravilha,-21.9897,-42.2972,hydro
Brazil,Maraã,-1.852,-65.5715,oil
Brazil,Marco Baldo,-27.57,-53.7858,hydro
Brazil,Marechal Mascarenhas de Moraes (Antiga Peixoto),-20.2878,-47.0661,hydro
Brazil,Maranhão III,-4.8221,-44.355,gas
Brazil,Martinuv,-12.8217,-60.2958,hydro
Brazil,Mascarenhas,-19.5005,-40.9185,hydro
Brazil,Mata Cobra,-28.0978,-53.0142,hydro
Brazil,Miguel Forte,-26.253,-51.0903,biomass
Brazil,Millennium,-12.694,-38.3145,gas
Brazil,Mineração Esperança,-20.1393,-44.1903,oil
Brazil,Minuano I,-33.7228,-53.399,wind
Brazil,Minuano II,-33.7174,-53.4167,wind
Brazil,Miracema Nuodex,-22.9591,-47.0894,oil
Brazil,Miassaba II,-5.0826,-36.4074,wind
Brazil,Miradouro,-20.865,-42.355,hydro
Brazil,Miranda Estância,-13.5542,-59.9353,hydro
Brazil,Miriri,-6.9447,-35.1299,biomass
Brazil,Modelo I,-5.4308,-35.8931,wind
Brazil,Modelo II,-5.4144,-35.9001,wind
Brazil,Modular de Campo Grande (Willian Arjona),-20.439,-54.6365,gas
Brazil,Moema,-20.2312,-49.3503,biomass
Brazil,Miranda,-18.9122,-48.0414,hydro
Brazil,Mantecorp IQF,-22.9458,-43.3641,oil
Brazil,Miassaba 3,-5.1278,-36.4536,wind
Brazil,Metalsider,-19.9669,-44.2034,coal
Brazil,Mata Velha,-16.2,-47.1667,hydro
Brazil,Mataraca,-6.5823,-34.9785,wind
Brazil,Mauá,-2.6219,-60.2502,oil
Brazil,Mauá Parte II Bloco Distrito,-2.6219,-60.2502,oil
Brazil,Mauá Parte III Bloco Iranduba,-3.0911,-60.4709,oil
Brazil,Maués,-3.3957,-57.7044,oil
Brazil,Metropolitan Betim Shopping,-19.9583,-44.1509,oil
Brazil,Mel 02,-4.9467,-36.9641,wind
Brazil,Melissa,-24.6,-53.2333,hydro
Brazil,Mello,-22.0392,-43.7683,hydro
Brazil,Menu,-21.257,-50.6335,oil
Brazil,Mercocítrico,-21.469,-47.3535,oil
Brazil,Meridiano,-20.4503,-50.1965,biomass
Brazil,Mestre,-15.9781,-55.3594,hydro
Brazil,Melhoramentos Florestal,-22.7502,-46.085,oil
Brazil,Mogi-Guaçu,-22.3669,-46.9,hydro
Brazil,Manso,-14.8744,-55.7858,hydro
Brazil,Mangue Seco 5,-5.1673,-36.4068,wind
Brazil,MAX-01 (Nova Lacerda),-14.4178,-59.5236,hydro
Brazil,MARFRIG SÃO GABRIEL,-30.3703,-54.3373,oil
Brazil,MALWEE POMERODE,-26.706,-49.1632,oil
Brazil,MALWEE MALHARIA,-26.4773,-49.1505,oil
Brazil,MA AUTOMOTIVE,-22.4157,-44.2808,oil
Brazil,Lábrea,-7.2618,-64.7841,oil
Brazil,Lwarcel (Antiga Lençóis Paulista),-22.5402,-48.7994,biomass
Brazil,Lwarcel,-22.6721,-48.8156,biomass
Brazil,Luís Eduardo Magalhães (Lajeado),-9.7572,-48.3714,hydro
Brazil,Luiz Queiroz,-22.7169,-47.6517,hydro
Brazil,Luiz Oscar Rodrigues de Melo (Antiga Linhares),-19.5323,-39.7992,gas
Brazil,Luiz Gonzaga (Itaparica),-9.144,-38.3134,hydro
Brazil,Luiz Dias Lins (Antiga Manopla),-8.6514,-35.2175,hydro
Brazil,Luiz Dias,-22.3688,-45.3516,hydro
Brazil,Luiz Carlos Prestes (Antiga Três Lagoas),-20.741,-51.6541,gas
Brazil,Ludesa,-26.5778,-52.4961,hydro
Brazil,Lucélia,-21.5649,-50.9594,biomass
Brazil,Lavrinhas,-22.5667,-44.8631,hydro
Brazil,Lençóis,-22.5167,-48.65,hydro
Brazil,Levorin,-23.459,-46.5235,gas
Brazil,Licínio de Almeida,-14.1769,-42.6541,wind
Brazil,Limeira,-21.0142,-42.461,hydro
Brazil,Limoeiro,-22.5781,-46.4194,hydro
Brazil,MB,-20.7787,-48.1919,biomass
Brazil,Limoeiro (Armando Salles de Oliveira),-21.6253,-47.0094,hydro
Brazil,Linha Emília,-28.9333,-51.7667,hydro
Brazil,Linha Granja Velha,-27.4275,-53.5408,hydro
Brazil,Lobo,-22.1615,-47.9011,hydro
Brazil,Londra,-23.5243,-48.9287,biomass
Brazil,Louis Dreyfus Commodities Agroindustrial,-23.6461,-46.6386,biomass
Brazil,Lubrasil,-22.7213,-47.6397,oil
Brazil,Lindoia,-3.139,-58.4345,oil
Brazil,MC2 Nova Venécia 2,-4.865,-44.3506,gas
Brazil,MENA BARRETO - 1,-22.9505,-43.1778,oil
Brazil,MINERAÇÃO BELOCAL - LIM,-20.2706,-45.6231,oil
Brazil,Madecal,-26.7717,-51.0044,biomass
Brazil,Mafrig Pirenópolis,-15.8062,-49.0024,oil
Brazil,Mafrás,-27.0367,-49.575,hydro
Brazil,Malagone,-18.6806,-48.4908,hydro
Brazil,Malhadinha 1,-3.9466,-41.123,wind
Brazil,Mambaí II,-14.6828,-46.2961,hydro
Brazil,Madame Denise (Cachoeira do Furado),-19.6428,-43.6911,hydro
Brazil,Manacapuru,-3.2913,-60.6075,oil
Brazil,Manaquiri,-3.428,-60.4494,oil
Brazil,Mandacaru,-8.279,-35.5964,wind
Brazil,Mandu,-20.479,-48.4015,biomass
Brazil,Mangue Seco 1,-5.174,-36.3024,wind
Brazil,Mangue Seco 2,-5.1659,-36.3193,wind
Brazil,Mangue Seco 3,-5.1856,-36.3603,wind
Brazil,Manacá,-18.3495,-49.4084,biomass
Brazil,Manoel Urbano - TECG,-8.8733,-69.2803,oil
Brazil,Machado Mineiro,-15.5225,-41.5111,hydro
Brazil,Macaúbas,-12.3512,-42.3385,wind
Brazil,MOINHOS SHOPPING,-30.0188,-51.1916,gas
Brazil,MONTE CARMO SHOPPING,-19.9407,-44.1091,oil
Brazil,MRN UG I (Antiga Porto Trombetas),-1.762,-55.8565,oil
Brazil,MRN UG II,-1.762,-55.8565,oil
Brazil,MUSASHI DO BRASIL,-7.8562,-34.9002,oil
Brazil,MVC Componentes Plásticos,-25.5305,-49.1967,oil
Brazil,Machadinho,-27.5278,-51.7903,hydro
Brazil,MWV Rigesa Três Barras,-26.1118,-50.2986,oil
Brazil,Macaco Branco,-22.7906,-46.8972,hydro
Brazil,Macacos,-5.412,-35.8483,wind
Brazil,Macambira I,-6.0463,-36.5551,wind
Brazil,Macambira II,-6.0863,-36.5312,wind
Brazil,Macau,-5.0883,-36.5578,wind
Brazil,Macaíba (Antiga Termo Toalia),-5.854,-35.3445,gas
Brazil,Macabu,-22.125,-41.8333,hydro
Brazil,Pandeiros,-15.5031,-44.7558,hydro
Brazil,Mogiana Bio-Energia,-20.4724,-47.8749,biomass
Brazil,Monjolinho (Antiga Alzir dos Santos Antunes),-27.3456,-52.7311,hydro
Brazil,Ormeo Junqueira Botelho (Antiga Cachoeira Encoberta),-21.0897,-42.3425,hydro
Brazil,Oriental,-9.0004,-36.1129,hydro
Brazil,Operadora São Paulo Renaissance,-23.544,-46.6265,gas
Brazil,Ombreiras,-15.1,-58.7333,hydro
Brazil,Oliveira,-20.7667,-44.6833,hydro
Brazil,Oiapoque COEN,3.6063,-51.8411,oil
Brazil,Oiapoque,3.8384,-51.8266,oil
Brazil,Oesp,-23.544,-46.6265,oil
Brazil,Oceano,-23.3525,-46.8674,oil
Brazil,OXFORD INDUSTRIAL,-26.2125,-49.3926,oil
Brazil,OESTE CANOAS I,-2.7732,-43.0825,gas
Brazil,OCRIM,-1.3616,-48.3628,oil
Brazil,O Boticário São Gonçalo dos Campos,-12.4141,-38.933,oil
Brazil,O Boticário Camaçari,-12.7388,-38.3008,gas
Brazil,O Boticário - Fábrica São José dos Pinhais,-25.4968,-49.1603,gas
Brazil,O Boticário - Centro de Distribuição Registro,-24.4718,-47.8189,oil
Brazil,Nutribem,-21.0118,-49.4866,oil
Brazil,Nova Maringá,-13.022,-57.0645,oil
Brazil,Nova Maurício,-21.4667,-42.85,hydro
Brazil,Nova Monte Verde,-9.968,-57.4555,oil
Brazil,Nova Moreno,-20.8238,-49.7558,biomass
Brazil,Nova Mutum,-13.5903,-56.2171,hydro
Brazil,Nova Olinda,-8.213,-42.545,solar
Brazil,Orsa,-24.117,-48.8945,oil
Brazil,Nova Ponte,-19.1331,-47.6936,hydro
Brazil,Novo Colorado,-13.9848,-57.067,hydro
Brazil,Novo Data Center - BM&FBOVESPA,-23.4624,-46.8558,oil
Brazil,Novo Horizonte,-25.0114,-48.6222,hydro
Brazil,Novo Paraíso,0.9949,-61.4626,oil
Brazil,Novo Remanso,-3.2163,-59.0125,oil
Brazil,Nutepa,-29.9668,-51.1844,oil
Brazil,Nova Tamoio,-21.9082,-48.1044,biomass
Brazil,Osório 2,-29.9445,-50.2516,wind
Brazil,Osório 3,-29.9815,-50.2549,wind
Brazil,Ourinhos,-23.0684,-49.8381,hydro
Brazil,PSJ,-23.3013,-45.9564,oil
Brazil,Pacheco,-26.5845,-52.1836,hydro
Brazil,Padre Carlos (Antiga Rolador),-21.7481,-46.5756,hydro
Brazil,Paes Leme,-22.1844,-44.2669,hydro
Brazil,Pai Joaquim,-19.5,-47.5167,hydro
Brazil,Paina II,-24.8919,-49.5936,hydro
Brazil,PROQUIGEL QUIMICA,-12.6522,-38.4549,oil
Brazil,Paineiras,-20.9508,-40.9427,biomass
Brazil,Pajeú do Vento,-14.0147,-42.6339,wind
Brazil,Palanquinho,-28.9039,-50.8119,hydro
Brazil,Palheiros,-27.5979,-49.74,hydro
Brazil,SHOPPING VIA BRASIL,-22.8349,-43.315,oil
Brazil,Palmeiras de Goiás,-16.806,-49.915,oil
Brazil,Pamesa,-8.283,-35.0255,gas
Brazil,Paiol,-18.5992,-41.8478,hydro
Brazil,Nova Geração,-17.2743,-50.1395,biomass
Brazil,PROLAGOS CONCESSIONÁRIA DE SERVIÇOS PÚBLICOS - ETA JUTURNAÍBA,-22.6335,-42.2886,oil
Brazil,PROLAGOS CONCESSIONÁRIA DE SERVIÇOS PÚBLICOS - BOOSTER CARIJOJO,-22.706,-42.2391,oil
Brazil,Ouro,-27.6367,-51.49,hydro
Brazil,Ouro Verde,-3.2792,-39.3061,wind
Brazil,Ouroeste,-19.9962,-50.3726,biomass
Brazil,PAM Destilaria,-17.1692,-46.8747,biomass
Brazil,PARAÍBA TERESINA SHOPPING,-5.0824,-42.78,oil
Brazil,PCT SLC Alimentos,-31.7455,-52.4246,biomass
Brazil,PROLAGOS CONCESSIONÁRIA DE SERVIÇOS PÚBLICOS - BOOSTER SERGEIRA,-22.7746,-42.1564,oil
Brazil,PERDIZES - 1,-23.5207,-46.653,oil
Brazil,PLASDIL - Plásticos Divinópolis,-20.586,-42.166,oil
Brazil,PLÁSTICOS PARANÁ,-25.4541,-49.2475,oil
Brazil,POLARIS MINERAÇÃO,-20.4418,-43.923,oil
Brazil,PORTO ALEGRE - 2,-30.0657,-51.2155,oil
Brazil,PQU,-23.66,-46.5285,gas
Brazil,PROJAC Central Globo de Produção,-22.899,-43.1985,gas
Brazil,PETRORECÔNCAVO - MATA DE SÃO JOÃO,-12.5492,-38.2972,oil
Brazil,Moinho,-24.4181,-54.0271,hydro
Brazil,Nova Fátima,-28.0411,-49.13,hydro
Brazil,Nova Avanhandava (Rui Barbosa),-21.1189,-50.2011,hydro
Brazil,Muricy (Antiga Camaçari Muricy I),-12.6566,-38.2655,oil
Brazil,Muniz Freire,-20.4667,-41.4667,hydro
Brazil,Mundial,-21.194,-51.2062,biomass
Brazil,Mundaú,-3.1936,-39.3746,wind
Brazil,Mumbuca,-22.6597,-50.2072,biomass
Brazil,Mucuripe,-3.7053,-38.4711,wind
Brazil,Mucuri,-17.5833,-40.9833,hydro
Brazil,Motorola SP,-22.702,-46.9765,oil
Brazil,Mosquitão,-16.3419,-51.4375,hydro
Brazil,Morumbi Corporate Torre Baixa,-23.6182,-46.6912,oil
Brazil,Morumbi Corporate Torre Alta,-23.6182,-46.6912,oil
Brazil,Morumbi Corporate Administração,-23.6182,-46.6912,oil
Brazil,Morrão,-14.0885,-42.6827,wind
Brazil,Morro dos Ventos VI,-5.3437,-35.8783,wind
Brazil,Morro dos Ventos IX,-5.3055,-35.9132,wind
Brazil,Morro dos Ventos IV,-5.382,-35.8809,wind
Brazil,Morro dos Ventos III,-5.3744,-35.8683,wind
Brazil,Monte Alto,-20.775,-46.725,hydro
Brazil,Monte Belo,-11.9319,-62.1828,hydro
Brazil,Monte Claro,-29.0303,-51.5206,hydro
Brazil,Monte Cristo,3.1219,-60.7085,oil
Brazil,Monte Dourado,-0.8621,-52.5339,oil
Brazil,Monte Serrat,-22.0197,-43.3022,hydro
Brazil,Mussambê,-9.8628,-41.0834,wind
Brazil,Monterrey,-21.2063,-49.7316,biomass
Brazil,Monções,-20.8512,-50.0799,biomass
Brazil,Moreno,-21.4779,-47.7607,biomass
Brazil,Morrinhos,-30.3176,-51.8654,hydro
Brazil,Morro Branco I,-9.8497,-41.0565,wind
Brazil,Morro dos Ventos I,-5.3628,-35.819,wind
Brazil,Morro dos Ventos II,-5.3601,-35.8355,wind
Brazil,Monteverde,-22.2916,-55.0938,biomass
Brazil,Mutum Paraná,-9.6158,-64.9292,oil
Brazil,Müller Destilaria,-21.9143,-47.498,biomass
Brazil,Müller Pirassununga - Taboão,-22.0056,-47.4406,oil
Brazil,Nordestão Nova Parnamirim,-5.8832,-35.2006,oil
Brazil,Nordestão Superfacil,-5.8803,-35.2195,oil
Brazil,Noroeste Paulista,-20.581,-49.9424,biomass
Brazil,Norsa Refrigerantes - Maracanaú,-3.8513,-38.5872,oil
Brazil,Norsa Refrigerantes - Simões Filho,-12.8324,-38.408,oil
Brazil,Norsa Refrigerantes - Suape,-8.3343,-35.0128,oil
Brazil,Nordestão 07,-5.7896,-35.1941,oil
Brazil,Nortao,-10.189,-59.4345,biomass
Brazil,Norte Fluminense,-22.2988,-41.873,gas
Brazil,Norte Shopping,-22.899,-43.1985,gas
Brazil,Norte Shopping II,-22.881,-43.2753,oil
Brazil,North Shopping Jóquei,-3.7817,-38.5182,oil
Brazil,Nossa Senhora da Conceição,-13.8957,-42.6769,wind
Brazil,Nova Aurora,-18.1428,-48.27,hydro
Brazil,Norte,-22.757,-47.1445,oil
Brazil,Nova Bandeirantes,-9.8435,-57.8019,oil
Brazil,Nordestão 03,-5.811,-35.1971,oil
Brazil,Nobrecel,-22.92,-45.4525,biomass
Brazil,N O Bioenergia,-22.3462,-47.3239,biomass
Brazil,NATURAL PORK,-13.8249,-56.0728,oil
Brazil,NG Bioenergia I,-16.9647,-50.4381,biomass
Brazil,Nardini,-21.1815,-48.6447,biomass
Brazil,Natureza Limpa,-16.354,-46.8965,biomass
Brazil,Nazária,-5.3418,-42.8069,oil
Brazil,Noidore,-14.8633,-53.29,hydro
Brazil,Negro de Fumo,-23.891,-46.4155,coal
Brazil,Niely,-22.6952,-43.4558,oil
Brazil,Nilo Peçanha,-22.6833,-43.8739,hydro
Brazil,Ninho da Águia,-22.5,-45.3333,hydro
Brazil,Nitro Química,-23.4857,-46.4294,oil
Brazil,Noble Energia,-20.581,-49.9424,biomass
Brazil,Noble Energia II,-20.4503,-50.197,biomass
Brazil,Nestlé,-22.478,-47.4472,oil
Brazil,SIDERMAUA,-19.4505,-44.2161,oil
Brazil,SVA,-29.783,-55.792,biomass
Brazil,SOCIMOL,-5.1221,-42.7991,oil
Brazil,Vale Complexo Tubarão GE 8,-20.256,-40.2353,oil
Brazil,Vale Complexo Tubarão - 7GE,-20.2784,-40.2413,oil
Brazil,VIVA OPEN MALL,-30.0278,-51.1578,oil
Brazil,VILMA ALIMENTOS,-19.9474,-44.0022,oil
Brazil,Usipar Industria e Comercio,-19.683,-44.89,biomass
Brazil,Usina da Serra,-22.0095,-47.9926,biomass
Brazil,Usina da Pedra,-21.172,-47.6189,biomass
Brazil,Usina Vale,-20.5981,-49.19,biomass
Brazil,Usina São Luiz,-22.9332,-49.7594,biomass
Brazil,Usina Monte Alegre,-21.3806,-46.2367,biomass
Brazil,Usina Laguna Açúcar e Álcool,-22.4585,-53.2894,biomass
Brazil,Usina Coruripe Açúcar e Álcool,-19.7096,-50.3347,biomass
Brazil,Usina Bonfim,-21.4138,-48.2786,biomass
Brazil,Usina Bertolo Açúcar e Álcool,-21.1413,-48.718,biomass
Brazil,Usina Ala Mega,-23.6461,-46.6386,oil
Brazil,Usiminas,-19.464,-42.5275,biomass
Brazil,Usaçúcar - Terra Rica,-22.7831,-52.704,biomass
Brazil,União dos Ventos 4,-5.0903,-35.798,wind
Brazil,União dos Ventos 5,-5.0904,-35.782,wind
Brazil,União dos Ventos 6,-5.0946,-35.767,wind
Brazil,União dos Ventos 7,-5.0971,-35.752,wind
Brazil,União dos Ventos 8,-5.0727,-35.888,wind
Brazil,União dos Ventos 9,-5.0872,-35.887,wind
Brazil,Vale Complexo Tubarão GE2,-20.264,-40.2431,oil
Brazil,União e Indústria,-8.3233,-35.3473,biomass
Brazil,Urbano Sinop,-11.9377,-55.5019,biomass
Brazil,Urbano São Gabriel,-30.332,-54.3105,biomass
Brazil,Uruba,-9.4779,-35.9492,biomass
Brazil,Uruguaiana,-29.7599,-56.9905,gas
Brazil,Usaciga,-23.3686,-52.8955,biomass
Brazil,Usalpa,-21.4453,-51.4256,biomass
Brazil,Urbano Jaraguá,-26.4773,-49.1505,biomass
Brazil,Vale Fertilizantes Cajati (Antiga Serrana),-24.732,-48.1135,oil
Brazil,Vale Fertilizantes Catalão,-18.1585,-47.899,oil
Brazil,Vale Fertilizantes Cubatão (Antiga Bunge nº 1 Cubatão),-23.8413,-46.3721,oil
Brazil,Ventos de Campo Formoso II,-10.5196,-40.6114,wind
Brazil,Ventos de Guarás I,-10.606,-40.6544,wind
Brazil,Ventos de Morrinhos,-10.5696,-40.6286,wind
Brazil,Ventos de Santa Angelina,-7.3047,-40.53,wind
Brazil,Ventos de Santa Brígida I,-8.8099,-36.7487,wind
Brazil,Ventos de Santa Brígida II,-8.7969,-36.7338,wind
Brazil,Ventos de Campo Formoso I,-10.6277,-40.6855,wind
Brazil,Ventos de Santa Brígida III,-8.8451,-36.7697,wind
Brazil,Ventos de Santa Brígida V,-8.8465,-36.7302,wind
Brazil,Ventos de Santa Brígida VI,-8.8681,-36.7471,wind
Brazil,Ventos de Santa Brígida VII,-8.8025,-36.7579,wind
Brazil,Ventos de Santa Bárbara,-7.3034,-40.5364,wind
Brazil,Ventos de Santa Joana I,-7.4237,-40.6715,wind
Brazil,Ventos de Santa Joana II,-7.5697,-40.7032,wind
Brazil,Ventos de Santa Brígida IV,-8.8338,-36.7602,wind
Brazil,União dos Ventos 3,-5.0825,-35.81,wind
Brazil,Ventos da Andorinha,-10.5833,-40.6374,wind
Brazil,Vento Aragano I,-32.4145,-52.3729,wind
Brazil,Vale Fertilizantes Tapira,-19.8803,-46.8444,oil
Brazil,Vale Fertilizantes Uberaba (Antiga Fosfértil - Expansão do Complexo Industrial Uberaba),-19.744,-47.9225,oil
Brazil,Vale do Ivaí,-23.874,-51.8365,biomass
Brazil,Vale do Ivaí - Cambuí,-23.9886,-51.8386,biomass
Brazil,Vale do Paranaíba,-18.7002,-49.6764,biomass
Brazil,Vale do Rosário,-20.6158,-48.0004,biomass
Brazil,Vento Formoso,-3.8552,-41.1323,wind
Brazil,Vale do São Simão,-19.0657,-50.3626,biomass
Brazil,Vale do Tijuco II,-19.3468,-48.2322,biomass
Brazil,Vale do Verdão,-17.9662,-50.3068,biomass
Brazil,Valfilm MG Industria de embalagens plastica,-22.7521,-45.0997,oil
Brazil,Valinho,-20.1454,-44.9056,biomass
Brazil,Varginha,-20.0431,-41.7478,hydro
Brazil,Vazante,-18.0,-46.87,solar
Brazil,Vale do Tijuco,-19.3468,-48.2325,biomass
Brazil,Ventos de Santa Joana III,-7.4377,-40.7465,wind
Brazil,União dos Ventos 2,-5.0806,-35.8258,wind
Brazil,União dos Ventos 1,-5.0774,-35.8398,wind
Brazil,Trairí,-3.2217,-39.29,wind
Brazil,Totvs,-23.5435,-46.6266,oil
Brazil,Total,-20.0816,-46.0347,biomass
Brazil,Torre Santander,-23.5435,-46.6266,oil
Brazil,Torre Eldorado,-23.5691,-46.688,gas
Brazil,Torre E,-23.6461,-46.6386,oil
Brazil,Torre D,-23.6461,-46.6386,oil
Brazil,Tombos,-20.9167,-42.0167,hydro
Brazil,Toca do Tigre,-27.5453,-53.8053,hydro
Brazil,Toca,-29.2667,-50.75,hydro
Brazil,Tivit Transamérica  (Antiga Optiglobe São Paulo),-23.646,-46.7103,oil
Brazil,Tivit Barra (Antiga Optiglobe Rio),-22.9799,-43.4208,oil
Brazil,Tishman Spyer,-23.5013,-46.8678,oil
Brazil,Tigre,-26.0494,-52.1767,hydro
Brazil,Thyssenkrupp Metalúrgica Campo Limpo,-23.2041,-46.7683,oil
Brazil,Thermoazul,-27.1166,-51.2233,biomass
Brazil,Testa Branca III,-2.8222,-41.8039,wind
Brazil,Telesp,-23.5066,-46.9,oil
Brazil,Terminal Central,-19.0238,-48.3223,oil
Brazil,Termo Norte II,-8.7905,-63.8061,gas
Brazil,Termocabo,-8.2835,-35.0239,gas
Brazil,Termocana,-23.2646,-52.4797,biomass
Brazil,Termoceará,-3.6885,-38.8622,gas
Brazil,Tramontina,-1.452,-48.4945,biomass
Brazil,Termomanaus,-7.8568,-35.0094,oil
Brazil,Termonordeste,-7.1614,-34.8603,oil
Brazil,Termopernambuco,-8.3991,-34.9569,gas
Brazil,Termoverde Caieiras,-23.3513,-46.7619,waste
Brazil,Terral,-4.9618,-37.0355,wind
Brazil,Terranova I,-26.25,-49.5085,biomass
Brazil,Testa Branca I,-2.801,-41.7917,wind
Brazil,Termomecânica São Paulo,-23.69,-46.5555,oil
Brazil,Transtechnology,-23.6821,-46.6133,oil
Brazil,Trapiche,-8.5773,-35.1175,biomass
Brazil,Triunfo,-9.6227,-36.1895,biomass
Brazil,Uberaba,-19.391,-47.8043,biomass
Brazil,Uberlândia,-18.8763,-48.3108,waste
Brazil,Uberlândia Refrescos,-18.8933,-48.2336,oil
Brazil,Una Açúcar e Energia,-8.7608,-35.3058,biomass
Brazil,Unaí Baixo,-16.1833,-47.0333,hydro
Brazil,Unialco,-21.4551,-50.7842,biomass
Brazil,Uarini,-2.9821,-65.1483,oil
Brazil,Unidade de Bioenergia Alto Taquari,-17.804,-53.2695,biomass
Brazil,Unidade de Bioenergia Morro Vermelho,-17.7246,-53.0219,biomass
Brazil,Unidade de Bioenergia Água Emendada,-17.5202,-52.0396,biomass
Brazil,Unidade de Geração de Energia Elétrica - Agrenco - Mato Grosso,-17.2901,-53.2675,biomass
Brazil,Unipac,-22.105,-50.1625,oil
Brazil,Univalem Bioenergia,-21.322,-50.9411,biomass
Brazil,União,-8.3456,-35.3386,biomass
Brazil,Unidade de Bioenergia Costa Rica,-18.5557,-53.1268,biomass
Brazil,União dos Ventos 10,-5.1072,-35.889,wind
Brazil,UT UGPU Itabirito,-20.2274,-43.9564,gas
Brazil,UGPU,-23.182,-46.8745,gas
Brazil,Triálcool,-18.872,-49.2524,biomass
Brazil,Trombini,-27.0335,-50.8626,biomass
Brazil,Tropical Bioenergia,-17.761,-50.1541,biomass
Brazil,Tropical Bioenergia II,-17.6819,-50.1031,biomass
Brazil,Três Capões,-25.4644,-51.663,hydro
Brazil,Três Irmãos,-20.6686,-51.3,hydro
Brazil,UNIME UNIÃO M EDUC CULTURA - LAURO DE FREITAS,-12.8865,-38.3069,oil
Brazil,Três Marias,-18.215,-45.2592,hydro
Brazil,Tudelândia,-21.9253,-41.9569,hydro
Brazil,Turvo I,-28.9238,-49.6741,oil
Brazil,Túlio Cordeiro de Mello (Antiga Granada),-20.18,-42.3642,hydro
Brazil,U-50,-8.3636,-34.9975,oil
Brazil,UFL,-22.8585,-51.3775,biomass
Brazil,UG Diesel Granol Bebedouro,-20.9336,-48.4824,oil
Brazil,Tucuruí,-3.8322,-49.6522,hydro
Brazil,Teles Pires,-9.341,-56.7774,hydro
Brazil,Ventos de Santa Joana IV,-7.4513,-40.6864,wind
Brazil,Ventos de Santa Joana V,-7.3709,-40.6742,wind
Brazil,Wal Mart Indaiatuba,-23.0863,-47.2086,oil
Brazil,Wal Mart Chapecó,-27.0924,-52.6089,oil
Brazil,Wal Mart Blumenau,-26.9155,-49.0566,oil
Brazil,WD,-18.2113,-45.9812,biomass
Brazil,Várzea Alegre,-19.9861,-41.7169,hydro
Brazil,Vulcabrás,-4.095,-38.4865,gas
Brazil,Volta do Rio,-2.8513,-39.9659,wind
Brazil,Volta Grande,-28.09,-48.9394,hydro
Brazil,Viçosa (Antiga Bicame),-20.3983,-41.2644,hydro
Brazil,Vivicon,-23.5435,-46.6266,oil
Brazil,Vitória Apart Hospital,-20.125,-40.2985,gas
Brazil,Vitória,-6.5573,-35.0147,wind
Brazil,Vitorino,-25.9833,-52.7833,hydro
Brazil,Vista Alegre II,-21.5457,-55.3871,biomass
Brazil,Vista Alegre I (Antiga Energética Vista Alegre),-21.7301,-55.5022,biomass
Brazil,Vista Alegre,-23.4891,-48.1247,biomass
Brazil,Virálcool 2,-20.9335,-48.2435,biomass
Brazil,Viana,-20.374,-40.4293,oil
Brazil,Vicentina,-22.4752,-54.4072,biomass
Brazil,Victor Baptista Adami (Antiga Passos Maia),-26.7086,-51.9197,hydro
Brazil,Videplast,-27.004,-51.1425,oil
Brazil,Viena,-4.8949,-47.3872,biomass
Brazil,Vila Amazonas V,-4.9989,-36.9547,wind
Brazil,Wal Mart Taubaté,-23.0224,-45.5458,oil
Brazil,Vila Pará I,-5.035,-36.9124,wind
Brazil,Vila Pará III,-5.0583,-36.9121,wind
Brazil,Vilhena,-12.7585,-60.1278,oil
Brazil,Viralcool,-20.9346,-48.2406,biomass
Brazil,Viralcool Castilho,-20.9061,-51.5346,biomass
Brazil,Virgolino de Oliveira - Fazenda Canoas,-21.0821,-49.9125,biomass
Brazil,Virgolino de Oliveira - Itapira,-22.4081,-46.7958,biomass
Brazil,Vila Pará II,-5.044,-36.9122,wind
Brazil,Wal-Mart Campos,-21.7499,-41.3144,oil
Brazil,Wal-Mart Morumbi,-23.5438,-46.6264,oil
Brazil,Walmart Big Brusque,-27.1207,-48.9002,oil
Brazil,Zanin,-21.8553,-48.175,biomass
Brazil,Zanotti Pacatuba,-3.8908,-38.5928,oil
Brazil,Zé Tunin,-21.315,-42.9446,hydro
Brazil,benedito,-24.5125,-51.774,hydro
Brazil,cooperativa regional agropecuaria sul catarinense - coopersulca,-19.2986,-49.6505,oil
Brazil,promold,-28.9118,-49.6516,oil
Brazil,Yuni GTIS Leopoldo Green,-23.5838,-46.6705,gas
Brazil,Água Benta,-26.0044,-51.092,hydro
Brazil,Água Limpa,-20.7441,-49.7095,biomass
Brazil,Água Santa,-26.0089,-51.057,hydro
Brazil,Água Vermelha (Antiga José Ermírio de Moraes),-19.8511,-50.3456,hydro
Brazil,Ângelo Cassol,-11.93,-62.1008,hydro
Brazil,Índio Condá,-27.1382,-52.7004,hydro
Brazil,Lavenit Lavanderia,-22.8085,-42.958,oil
Brazil,Água Bonita,-22.7371,-50.5881,biomass
Brazil,Via Brasil Shopping,-22.8193,-43.3103,oil
Brazil,YPE I,-22.7146,-46.7761,oil
Brazil,YOKI,-22.2413,-45.9494,oil
Brazil,Walmart Santa Maria,-29.6802,-53.7975,oil
Brazil,Walter Rossi (Antiga Antas II),-21.7472,-46.6028,hydro
Brazil,Wasser Kraft,-26.4464,-53.405,hydro
Brazil,West Shopping,-22.9028,-43.2075,oil
Brazil,Willy Faller,-27.7904,-51.001,hydro
Brazil,Xangri-lá,-29.7767,-50.0736,wind
Brazil,YOKI ALIMENTOS,-22.226,-45.9269,oil
Brazil,Xavante,-8.175,-35.3889,wind
Brazil,Xavier,-22.1911,-42.5264,hydro
Brazil,Xicão,-21.9189,-45.4781,hydro
Brazil,Xingó,-9.6209,-37.7924,hydro
Brazil,YAMADA CIDADE NOVA,-1.3524,-48.3897,oil
Brazil,YAMADA PLAZA CASTANHAL,-1.2935,-47.928,oil
Brazil,YAMADA PÁTIO BELÉM,-1.4532,-48.4853,oil
Brazil,Xavantina,-27.0264,-52.3753,hydro
Brazil,Ventos de Santa Joana IX,-7.4517,-40.7441,wind
Brazil,Vetorial Corumbá,-19.2211,-57.6195,biomass
Brazil,Veríssimo,-19.5985,-48.3314,biomass
Brazil,Ventos de São Clemente 4,-8.7035,-36.7626,wind
Brazil,Ventos de São Clemente 3,-8.7126,-36.7162,wind
Brazil,Ventos de São Clemente 2,-8.7093,-36.7337,wind
Brazil,Ventos de São Clemente 1,-8.7263,-36.6999,wind
Brazil,Ventos de São Benedito,-5.2262,-35.7852,wind
Brazil,Ventos de Santo Uriel,-5.4873,-35.9001,wind
Brazil,Ventos de Santo Onofre III,-7.555,-40.7257,wind
Brazil,Ventos de Santo Onofre II,-7.5946,-40.7304,wind
Brazil,Ventos de Santo Onofre I,-7.5533,-40.7255,wind
Brazil,Ventos de Santo Estevão V,-7.7599,-40.6733,wind
Brazil,Ventos de Santo Estevão III,-7.7283,-40.6584,wind
Brazil,Ventos de Santo Estevão II,-7.7482,-40.6296,wind
Brazil,Ventos de Santo Dimas,-5.2337,-35.7899,wind
Brazil,Ventos de Santo Augusto VIII,-7.6715,-40.6583,wind
Brazil,Ventos de Santo Augusto VII,-7.6517,-40.6473,wind
Brazil,Ventos de Santo Augusto VI,-7.6068,-40.6486,wind
Brazil,Ventos de Santo Augusto V,-7.4093,-40.6951,wind
Brazil,Ventos de Santa Joana VI,-7.5266,-40.7442,wind
Brazil,Ventos de Santa Joana VII,-7.413,-40.6686,wind
Brazil,Ventos de Santa Joana VIII,-7.5977,-40.7325,wind
Brazil,Ventos de Santa Joana X,-7.4387,-40.7083,wind
Brazil,Ventos de Santa Joana XI,-7.483,-40.7998,wind
Brazil,Ventos de Santa Joana XII,-7.486,-40.754,wind
Brazil,Ventos de São Clemente 5,-8.7799,-36.7566,wind
Brazil,Ventos de Santa Joana XIII,-7.4104,-40.7109,wind
Brazil,Ventos de Santa Joana XV,-7.4778,-40.7674,wind
Brazil,Ventos de Santa Joana XVI,-7.4588,-40.7237,wind
Brazil,Ventos de Santo Augusto I,-7.6525,-40.6276,wind
Brazil,Ventos de Santo Augusto II,-7.645,-40.6371,wind
Brazil,Ventos de Santo Augusto III,-7.3723,-40.7072,wind
Brazil,Ventos de Santo Augusto IV,-7.3858,-40.6978,wind
Brazil,Ventos de Santa Joana XIV,-7.5109,-40.7344,wind
Brazil,Ventos de São Clemente 6,-8.7611,-36.7124,wind
Brazil,Ventos de São Clemente 7,-8.7459,-36.7256,wind
Brazil,Ventos de São Clemente 8,-8.6965,-36.6982,wind
Brazil,Verace 36,-33.5961,-53.3677,wind
Brazil,Verace I,-33.5017,-53.2643,wind
Brazil,Verace II,-33.5087,-53.2832,wind
Brazil,Verace III,-33.5221,-53.279,wind
Brazil,Verace IV,-33.5517,-53.2273,wind
Brazil,Verace IX,-33.5767,-53.2953,wind
Brazil,Verace 35,-33.5851,-53.3593,wind
Brazil,Verace V,-33.5357,-53.3012,wind
Brazil,Verace VII,-33.5668,-53.246,wind
Brazil,Verace VIII,-33.553,-53.3108,wind
Brazil,Verace X,-33.5913,-53.2716,wind
Brazil,Veracel,-16.374,-39.5705,biomass
Brazil,Verde Vale III,-14.156,-42.735,solar
Brazil,Vertente,-20.4015,-48.9911,biomass
Brazil,Verace VI,-33.5431,-53.2769,wind
Brazil,Vetorial,-20.1745,-53.7836,biomass
Brazil,Verace 34,-33.5625,-53.3526,wind
Brazil,Verace 30,-33.6099,-53.3441,wind
Brazil,Ventos de São Martinho,-5.2779,-35.7809,wind
Brazil,Ventos de São Miguel,-5.2839,-35.8755,wind
Brazil,Ventos de Tianguá,-3.8711,-41.1878,wind
Brazil,Ventos de Tianguá Norte,-3.8353,-41.1759,wind
Brazil,Ventos do Morro do Chapéu,-3.881,-41.1843,wind
Brazil,Ventos do Nordeste,-14.1195,-42.6141,wind
Brazil,Verace 31,-33.6072,-53.3248,wind
Brazil,Ventos do Parazinho,-3.8685,-41.1583,wind
Brazil,Verace 24,-33.6387,-53.3094,wind
Brazil,Verace 25,-33.6399,-53.3251,wind
Brazil,Verace 26,-33.6535,-53.3041,wind
Brazil,Verace 27,-33.6543,-53.3237,wind
Brazil,Verace 28,-33.634,-53.3534,wind
Brazil,Verace 29,-33.6182,-53.3572,wind
Brazil,Ventos do Sertão,-10.5567,-40.5687,wind
Brazil,SM,-5.4422,-35.9233,wind
Brazil,Telegráfica,-12.8486,-58.9261,hydro
Brazil,Tefé,-3.3505,-64.6608,oil
Brazil,Santana I,-6.0535,-36.4556,wind
Brazil,Santana,-22.0667,-48.0667,hydro
Brazil,Santa Úrsula,-5.2937,-35.7893,wind
Brazil,Santa Vitória,-18.7709,-50.224,biomass
Brazil,Santa Terezinha Paranacity,-22.8724,-52.1736,biomass
Brazil,Santa Terezinha (Ivaté),-23.4091,-53.358,biomass
Brazil,Santa Terezinha,-22.3128,-46.1986,hydro
Brazil,Santa Teresa,-7.5485,-35.0251,biomass
Brazil,Santa Rosa do Purus  BBF Acre,-9.4408,-70.485,oil
Brazil,Santa Rosa II,-22.0991,-42.2669,hydro
Brazil,Santa Rosa,-27.897,-50.2862,hydro
Brazil,Santa Mônica I,-3.2597,-39.2816,wind
Brazil,Santa Mônica,-5.2798,-35.8006,wind
Brazil,Santa Maria de Lençóis,-22.5406,-48.8003,biomass
Brazil,Santa Maria das Barreiras,-8.8405,-49.7219,oil
Brazil,Santa Maria Açucareira,-9.0065,-35.4213,biomass
Brazil,Santa Maria,-26.7522,-49.4189,hydro
Brazil,Santa Gabriela,-17.5375,-54.4333,hydro
Brazil,Santa Helena,-17.7561,-44.4725,hydro
Brazil,Santa Helena Açúcar e Álcool,-17.8185,-50.5298,biomass
Brazil,Santa Hermínia,-22.8093,-50.0674,biomass
Brazil,Santa Ines,-21.0821,-48.0248,biomass
Brazil,Santa Isabel,-21.5065,-49.2004,biomass
Brazil,Santana II,-6.0428,-36.464,wind
Brazil,Santa Izabel,-20.4183,-54.4197,hydro
Brazil,Santa Laura,-26.7666,-52.3178,hydro
Brazil,Santa Luzia Alto,-26.6119,-52.5297,hydro
Brazil,Santa Luzia D´Oeste,-12.3453,-61.7697,hydro
Brazil,Santa Luzia I,-21.4315,-54.3718,biomass
Brazil,Santa Lúcia,-22.3313,-47.3959,biomass
Brazil,Santa Lúcia II,-13.5517,-59.0367,hydro
Brazil,Santa Juliana,-19.3023,-47.464,biomass
Brazil,Santarém,-2.4785,-54.7211,oil
Brazil,Santo Antônio,-8.8011,-63.9497,hydro
Brazil,Santo Antônio de Pádua,-3.2733,-39.2247,wind
Brazil,Serra Grande,-8.9799,-36.0533,biomass
Brazil,Serra da Mesa,-13.835,-48.3011,hydro
Brazil,Serra das Agulhas,-18.3609,-43.9579,hydro
Brazil,Serra das Vacas I,-8.9113,-36.7477,wind
Brazil,Serra das Vacas II,-8.8952,-36.7257,wind
Brazil,Serra das Vacas III,-8.9031,-36.7579,wind
Brazil,Serra,-22.5169,-43.6922,hydro
Brazil,Serra das Vacas IV,-8.9138,-36.7296,wind
Brazil,Serra de Santana II,-6.1014,-36.5787,wind
Brazil,Serra de Santana III,-6.0249,-36.512,wind
Brazil,Serra do Espinhaço,-14.114,-42.5528,wind
Brazil,Serra do Facão,-18.0667,-47.6667,hydro
Brazil,Serra do Navio,0.9,-51.9925,oil
Brazil,Serra do Salto,-14.1555,-42.6382,wind
Brazil,Serra de Santana I,-6.0566,-36.5806,wind
Brazil,Santa Fé I,-22.0231,-43.1628,hydro
Brazil,Sergipe Industrial Filial,-10.9071,-37.0622,oil
Brazil,Seresta,-9.9092,-36.3241,biomass
Brazil,Santo Antônio do Caiapó,-16.4433,-51.3914,hydro
Brazil,Santo Antônio do Içá,-3.1005,-67.9278,oil
Brazil,Santo Antônio do Jari,-0.65,-52.5167,hydro
Brazil,Sapezal,-13.2656,-59.0194,hydro
