idCountry,idPrimaryFuel,namePlant,latitude,longitude
0,6,Kajaki Hydroelectric Power Plant Afghanistan,32.322,65.119
0,13,Kandahar DOG,31.67,65.795
0,13,Kandahar JOL,31.623,65.792
0,6,Mahipar Hydroelectric Power Plant Afghanistan,34.556,69.4787
0,6,Naghlu Dam Hydroelectric Power Plant Afghanistan,34.641,69.717
0,6,Nangarhar (Darunta) Hydroelectric Power Plant Afghanistan,34.4847,70.3633
0,4,Northwest Kabul Power Plant Afghanistan,34.5638,69.1134
0,6,Pul-e-Khumri Hydroelectric Power Plant Afghanistan,35.9416,68.71
0,6,Sarobi Dam Hydroelectric Power Plant Afghanistan,34.5865,69.7757
1,6,Bistrica 1,39.9116,20.1047
1,6,Fierza,42.2514,20.0431
1,6,Koman,42.1033,19.8224
1,6,Lanabregas,41.3428,19.8964
1,6,Shkopet,41.6796,19.8305
1,6,Ulez,41.6796,19.8936
1,6,Vau i Dijes,42.0137,19.6359
1,9,Vlora,40.4874,19.434
2,13,Adrar,27.908,-0.317
2,13,Ain Azel,35.88,5.475
2,4,Ain Djasser,35.8665,6.0262
2,13,Ain Sekhouna,34.532,0.804
2,13,Ain el Ibel I,34.346,3.164
2,13,Ain el Ibel II,34.342,3.169
2,13,Ain el Melh,34.861,4.204
2,13,Algerie Sud-Ouest,27.908,-0.317
2,4,Annaba,36.8924,7.7634
2,13,Aoulef,26.9989,1.3351
2,4,Arbaa,36.5988,3.1375
2,13,Bir Rebaa,31.285,8.565
2,4,Boufarik 1,36.5914,2.9223
2,4,Boufarik 2,36.596,2.878
2,4,Boutelilis,35.5658,-0.9386
2,13,Chelghoum El Aïd,36.225,6.11
2,13,El Kheneg,33.727,2.811
2,4,F'Krina,35.7666,7.3619
2,13,HPC Ouargla,32.602,5.834
2,4,Hadjret Ennous,36.5767,2.0797
2,4,Hamma 2,36.7489,3.0823
2,4,Hassi Messaoud Mobile,31.6703,6.0531
2,4,Hassi Messoud,31.6703,6.0531
2,4,Hassi Messoud Nord 2,31.7877,6.0517
2,4,Hassi Messoud Ouest,31.8065,5.9924
2,13,Hassi R'mel ISCC,33.123,3.356
2,13,Hauts Plateaux Centre,34.342,3.169
2,13,Hauts Plateaux Est,35.68,5.9861
2,6,Ighil Emda,36.4739,5.2719
2,13,In Salah,27.183,2.504
2,4,Jijel,36.8139,5.876
2,4,Kahrama IPP,35.8064,-0.2476
2,4,Koudiet Eddraouch,36.885,8.0778
2,13,Labiodh Sidi Cheikh,32.945,0.555
2,4,Labreg,34.5056,6.9848
2,4,Marsat,35.8,-0.1924
2,4,Marsat TG,35.8,-0.1924
2,4,Msila 1,35.7071,4.4804
2,13,Naâma,33.274,-0.372
2,13,Oued El Kebrit,35.919,7.87
2,13,Oued el Ma,35.68,5.9861
2,4,Ras Djinet,36.8509,3.6983
2,13,Ras el Oued,36.01,5.035
2,4,Ravin Blanc,35.7095,-0.6319
2,13,Reggane,26.768,0.137
2,4,Relizane,35.7835,0.5407
2,4,SKB IPP,36.1399,2.9296
2,4,SKS IPP SNC Lavalin,36.8789,6.9366
2,4,SPP1 Thermal,32.9475,3.238
2,4,Skikda,36.88,6.935
2,13,Tamanrasset,22.849,5.45
2,4,Terga,35.4608,-1.2295
2,4,Tiaret,35.3396,1.3562
2,4,Tilghemt 1,33.1319,3.348
2,4,Tilghemt 2,33.1377,3.3678
2,13,Timimoun,29.22,0.223
2,13,Tindouf,27.752,-8.154
2,13,Télagh,34.692,-0.601
2,13,Zaouiet Kounta,27.241,-0.174
4,8,Biopio,-12.4706,13.7319
4,6,Biopio (hydro),-12.4706,13.7319
4,6,Cambambe,-9.7523,14.4809
4,6,Capanda,-9.7955,15.4672
4,4,Cazenga,-8.8383,13.2344
4,8,Huambo,-12.76,15.75
4,4,Lobito,-12.37,13.57
4,8,Luanda Diesel,-8.8383,13.2344
4,8,Luanda Refinery,-8.8383,13.2344
4,8,Malongo,-5.55,12.2
4,6,Matala,-14.7333,15.0333
4,4,Namibe,-15.1961,12.1522
4,6,Rio Luachimo,-7.3,20.85
4,8,Xitoto,-15.3333,15.0
5,8,McMurdo Station Generator,-77.847,166.6605
5,17,Ross Island,-77.8428,166.7271
7,9,AGUA DEL CAJON (AUTOGENERADOR DEL MEM),-38.9368,-68.3556
7,4,AGUA DEL CAJON (GENERADOR DEL MEM),-38.9368,-68.3556
7,6,AGUA DEL TORO,-34.5792,-68.9892
7,6,ALICURA,-40.58,-70.7489
7,8,ALMIRANTE BROWN,-34.8386,-58.4033
7,4,ALTO VALLE,-38.9524,-68.0218
7,8,ALUMINE,-39.2145,-70.9157
7,6,ALVAREZ CONDARCO,-33.0452,-69.0516
7,6,ARROYITO,-39.1009,-68.5982
7,7,ATUCHA I,-33.967,-59.2059
7,7,ATUCHA II,-33.9674,-59.2045
7,8,BANDERA,-23.8219,-64.7847
7,8,BARILOCHE (PUERTO  MORENO),-41.1167,-71.4167
7,6,BENJAMIN REOLIN,-32.1883,-64.3233
7,8,BERNARDO  DE IRIGOYEN,-26.2545,-53.6469
7,8,C.T. RUFINO,-34.2605,-62.7107
7,8,C.T. SAN VICENTE,-35.0241,-58.4237
7,8,CAA CATI,-27.7534,-57.6205
7,6,CABRA CORRAL,-25.2712,-65.3298
7,6,CACHEUTA (NUEVA),-33.0291,-69.1109
7,8,CACHI,-25.1089,-66.2106
7,8,CAFAYATE,-26.0715,-65.9876
7,8,CAPITAL CATAMARCA - PREDIO CHOYA,-28.4537,-65.7841
7,8,CAPITAL CATAMARCA - PREDIO EX CARCEL,-28.4773,-65.7872
7,8,CAPITAL CATAMARCA - PREDIO RIPIERA,-28.4684,-65.7797
7,6,CASA DE PIEDRA,-38.2143,-67.1908
7,6,CASSAFFOUSTH,-31.3992,-64.2006
7,2,CENTRAL BAHIA BLANCA (PIEDRA BUENA) SA,-38.7872,-62.2536
7,4,CENTRAL LOMA DE LA LATA SA,-38.5127,-68.6048
7,8,CENTRAL PARQUE INDUSTRIAL LA BANDA,-38.062,-67.9463
7,4,CENTRAL T.GENELBA,-34.9027,-58.7334
7,4,CENTRAL T.GENELBA PLUS,-34.9027,-58.7334
7,4,CENTRAL TERMICA BRIGADIER LOPEZ (ENARSA),-31.7112,-60.7811
7,4,CENTRAL TERMICA DE CICLO COMBINADO SALTA,-24.7456,-65.0513
7,2,CENTRAL TERMICA GÜEMES SA,-24.6894,-65.0425
7,4,CENTRAL TERMICA LA BANDA,-27.7528,-64.2655
7,8,CENTRAL TERMICA PIQUIRENDA SA,-22.3497,-63.7664
7,8,CENTRAL TERMICA REMEDIOS DE ESCALADA,-34.7208,-58.3881
7,4,CENTRAL TERMOELECTRICA GUILLERMO BROWN,-34.6268,-58.5438
7,4,CENTRAL TERMOELECTRICA MANUEL BELGRANO,-24.6894,-65.0425
7,4,CENTRAL TERMOELECTRICA TIMBUES,-32.5778,-60.791
7,6,CH LOS CARACOLES,-31.5192,-68.9814
7,8,CHILECITO,-29.1578,-67.5069
7,13,CHIMBERA 1,-31.9881,-68.5402
7,6,CIPOLLETTI,-38.9121,-67.9427
7,8,COMANDANTE ANDRESITO,-25.6669,-54.0419
7,4,COMODORO RIVADAVIA,-25.9913,-54.6278
7,17,COMODORO RIVADAVIA - ANTONIO MORAN,-45.8467,-67.4964
7,8,CORRIENTES,-27.4708,-58.8042
7,2,COSTANERA,-34.626,-58.3393
7,4,CRUZ DE PIEDRA,-33.0349,-68.7971
7,8,CRUZ DEL EJE,-30.7636,-64.7538
7,4,CT 13 DE JULIO,-32.1613,-64.1537
7,8,CT ALEM,-43.0907,-65.2298
7,8,CT ALUMINE,-38.8706,-70.5753
7,8,CT ARISTOBULO DEL VALLE,-27.0922,-54.8625
7,8,CT ARRECIFES,-34.0414,-60.1297
7,8,CT AÑATUYA,-28.4431,-62.8569
7,8,CT AÑATUYA II,-28.4431,-62.8569
7,8,CT BARILOCHE,-41.1497,-71.2633
7,8,CT BELL VILLE,-32.6103,-62.6864
7,4,CT BRAGADO,-35.1364,-60.4311
7,8,CT CAPITAN SARMIENTO,-34.1636,-59.7683
7,8,CT CATAMARCA,-28.4706,-65.7647
7,8,CT CAVIAHUE,-38.0528,-70.6136
7,8,CT CERES,-29.8883,-61.9297
7,8,CT CHARATA,-27.2369,-61.1939
7,8,CT CHILECITO,-29.1581,-67.5072
7,8,CT CIPOLLETTI,-38.9133,-67.9414
7,8,CT COLON BUENOS AIRES,-33.9222,-61.0769
7,4,CT CONCEPCION DEL URUGUAY,-32.4767,-58.2672
7,8,CT CORRIENTES,-27.4708,-58.8042
7,2,CT ECOENERGIA (PETROBRAS),-38.6871,-62.3961
7,4,CT ENSENADA DE BARRAGAN,-34.8597,-57.9557
7,8,CT ESQUINA,-30.055,-59.5294
7,8,CT FORMOSA II,-26.1764,-58.2094
7,8,CT GENERAL VILLEGAS,-35.0347,-62.9981
7,8,CT GOYA,-29.1583,-59.2728
7,4,CT INDEPENDENCIA,-26.8666,-65.2247
7,8,CT INGENIERO JUAREZ,-23.9078,-61.8342
7,8,CT INTA CATAMARCA,-28.4733,-65.7275
7,8,CT ISLA VERDE,-33.2425,-62.395
7,8,CT JUAN JOSE CASTELLI,-25.9564,-60.6204
7,8,CT JUNIN,-34.5708,-60.9161
7,8,CT LA PLATA,-34.9344,-58.016
7,8,CT LA RIOJA DELIVERY,-29.3811,-66.8325
7,8,CT LA RIOJA SUR,-29.3808,-66.8319
7,8,CT LAGUNA BLANCA,-25.1286,-58.2597
7,4,CT LAS ARMAS,-37.0781,-57.8181
7,4,CT LAS ARMAS II,-37.0781,-57.8181
7,8,CT LAS PALMAS,-27.0289,-58.6997
7,8,CT LIBERTADOR GENERAL SAN MARTIN,-40.8421,-68.0869
7,8,CT LINCOLN,-34.8578,-61.5206
7,8,CT LOBOS,-35.1917,-59.0808
7,8,CT MAGDALENA,-35.1001,-57.4839
7,4,CT MATHEU,-34.3931,-58.8372
7,8,CT MEDANITOS (RINCON DE LOS SAUCES),-37.4102,-68.9
7,8,CT MIRAMAR I,-38.2472,-57.8242
7,4,CT OLAVARRIA,-36.9439,-60.2361
7,8,CT ORAN,-23.1258,-64.3069
7,4,CT PARANA,-31.7764,-60.4553
7,8,CT PARQUE INDUSTRIAL CATAMARCA,-28.5339,-65.7997
7,8,CT PASO DE LA PATRIA,-27.3236,-58.5667
7,8,CT PEHUAJO,-35.8336,-61.8758
7,4,CT PINAMAR,-37.0953,-56.8789
7,8,CT PIRANE,-25.6786,-59.0756
7,4,CT PLUSPETROL NORTE,-26.9955,-65.166
7,8,CT RAFAELA,-31.2567,-61.5203
7,8,CT REALICO,-35.055,-64.2406
7,4,CT ROCA,-31.8919,-60.0106
7,8,CT SAENZ PEÑA  I,-26.8156,-60.4114
7,8,CT SAENZ PEÑA  II,-26.8153,-60.4125
7,8,CT SALTO,-27.4597,-65.6055
7,8,CT SAN MARTIN NORTE III,-34.5252,-58.6206
7,4,CT SAN MIGUEL DE TUCUMAN,-26.9955,-65.166
7,8,CT SAN MIGUEL NORTE III,-34.5252,-58.6206
7,8,CT SANTA ROSA,-28.2628,-58.0006
7,8,CT TARTAGAL,-22.5406,-63.8056
7,8,CT TEREVINTOS,-28.4289,-65.7878
7,8,CT TINOGASTA,-28.0486,-67.5667
7,4,CT TUCUMAN,-26.9955,-65.166
7,8,CT VENADO TUERTO,-33.7736,-61.9564
7,8,CT VIALE,-31.8919,-60.0106
7,8,CT VILLA ANGELA,-27.5808,-60.7094
7,8,CT VILLA REGINA,-39.0872,-67.0881
7,6,CUESTA DEL VIENTO,-30.1833,-69.0667
7,13,Cafayate,-26.04,-65.93
7,13,Caldenes del Oeste,-33.61,-65.445
7,13,Cauchari,-23.8,-66.8
7,4,DEAN FUNES,-31.3934,-64.2059
7,4,DIQUE,-34.8902,-57.933
7,4,DOCK SUD,-34.6533,-58.342
7,6,EL CADILLAL,-26.6156,-65.1929
7,6,EL CARRIZAL,-33.2993,-68.7199
7,6,EL CHOCON,-39.2577,-68.7483
7,6,EL TIGRE,-34.61,-68.6136
7,6,EL TUNAL,-25.2323,-64.4762
7,7,EMBALSE,-32.2316,-64.4422
7,6,ESCABA,-27.6589,-65.7633
7,8,ESQUINA,-30.0102,-59.5321
7,4,EX CENTRAL BUENOS AIRES,-34.627,-58.3382
7,4,FILO MORADO,-37.2742,-69.652
7,6,FITZ SIMON,-32.1784,-64.4207
7,6,FLORENTINO AMEGHINO,-43.6996,-66.4815
7,6,FUTALEUFU,-43.1288,-71.63
7,4,GENERACION FRIAS SA,-28.6072,-65.1228
7,17,GENERAL ACHA,-37.4309,-64.716
7,4,GENERAL LEVALLE,-34.0364,-63.9217
7,6,GENERAL SAN MARTIN,-33.0449,-68.9219
7,8,GOYA,-29.1388,-59.2277
7,4,GOYA (ELECTROPATAGONIA SA),-29.1388,-59.2277
7,6,GUILLERMO CESPEDES,-39.56,-65.6817
7,6,H. PICHI PICUN LEUFU,-40.012,-69.9918
7,8,ISLA VERDE,-33.2422,-62.3946
7,8,ITA IBATE,-27.4252,-57.3341
7,8,ITUZAINGO,-27.5785,-56.6726
7,13,Iglesia-Guañizuil,-30.34,-69.27
7,6,JULIAN  ROMERO,-38.8367,-68.038
7,8,LA CRUZ,-29.1762,-56.6394
7,4,LA PLATA COGENERACION,-34.889,-57.9206
7,8,LA RIOJA,-29.3823,-66.8325
7,4,LA TABLADA,-27.4184,-55.9097
7,6,LA VIÑA,-31.8708,-65.0349
7,6,LAS MADERAS,-24.4438,-65.2203
7,6,LOS CORONELES (EX 25  DE MAYO),-34.6,-68.5285
7,6,LOS MOLINOS I,-31.838,-64.4452
7,6,LOS MOLINOS II,-31.838,-64.4452
7,6,LOS QUIROGA,-27.6509,-64.3618
7,6,LOS REYUNOS,-34.6028,-68.6383
7,4,LUJAN DE CUYO,-33.0551,-68.981
7,4,MAR DE AJO,-36.7208,-63.1977
7,4,MAR DEL PLATA (9 DE JULIO),-38.0495,-57.546
7,17,MAYOR BURATOVICH,-39.2291,-62.6497
7,8,MBURUCUYA,-28.0441,-58.2285
7,8,MERCEDES,-29.1808,-58.0793
7,4,MODESTO MARANZANA,-33.1608,-64.3656
7,2,NECOCHEA,-38.5785,-58.7108
7,6,NIHUIL I,-34.9907,-68.6237
7,6,NIHUIL II,-34.9039,-68.6177
7,6,NIHUIL III,-34.8821,-68.576
7,6,NIHUIL IV,-34.833,-68.5168
7,8,NUEVA ESPERANZA,-26.2072,-64.2477
7,4,NUEVO PUERTO,-34.5721,-58.3835
7,4,OBERA (TG Nº21 FIAT ),-27.5019,-55.1245
7,8,ORENSE,-38.6851,-59.7804
7,9,PARANA,-33.3549,-60.1718
7,17,PARQUE EOLICO ARAUCO SAPEM I,-28.6684,-66.7524
7,17,PARQUE EOLICO ARAUCO SAPEM II,-28.6684,-66.7524
7,17,PARQUE EOLICO DIADEMA,-45.7458,-67.6953
7,17,PARQUE EOLICO EL TORDILLO,-45.8507,-67.9081
7,17,PARQUE EOLICO LOMA BLANCA IV (ENARSA),-43.0907,-65.2298
7,17,PARQUE EOLICO RAWSON I (ENARSA),-43.3522,-65.1734
7,17,PARQUE EOLICO RAWSON II (ENARSA),-43.3522,-65.1734
7,8,PASO DE LOS LIBRES,-29.7148,-57.0933
7,4,PATAGONIA,-45.7934,-67.5145
7,8,PERUGORRIA,-29.34,-58.6077
7,17,PICO TRUNCADO - JORGE ROMANUTTI,-46.8065,-67.9808
7,4,PICO TRUNCADO I,-46.7842,-67.9498
7,6,PIEDRA DEL AGUILA (CPSA),-31.6651,-63.8314
7,6,PIEDRAS MORAS,-32.1675,-64.2438
7,4,PILAR  BICENTENARIO,-31.6651,-63.8314
7,2,PILAR ZANICHELLI,-31.6662,-63.8344
7,6,PLANICIE BANDERITA,-28.5339,-65.7997
7,13,PLANTA PILOTO FOTOVOLTAICA SAN JUAN 1,-31.3891,-68.6752
7,4,PRESIDENTE SARMIENTO,-31.5129,-68.5399
7,6,PUEBLO VIEJO,-27.1149,-65.7523
7,4,PUERTO MADRYN,-42.7069,-65.1048
7,2,PUERTO NUEVO,-34.5754,-58.3788
7,17,PUNTA ALTA - CENTENARIO,-38.7833,-61.8984
7,6,QUEBRADA DE ULLUM,-31.2567,-61.5203
7,6,RIO CORRALITO,-24.983,-65.686
7,4,RIO CUARTO,-33.1614,-64.3649
7,6,RIO GRANDE,-53.7862,-67.7222
7,6,RIO HONDO,-27.5225,-64.8861
7,6,SALTO ANDERSEN,-38.8244,-64.8296
7,6,SALTO GRANDE (MITAD ARGENTINA),-31.3891,-68.6752
7,4,SAN FRANCISCO,-31.4391,-62.1119
7,8,SAN MARTIN DE LOS ANDES,-40.1511,-71.334
7,2,SAN NICOLAS,-33.3562,-60.1729
7,8,SAN PEDRO,-26.6253,-54.1102
7,6,SAN ROQUE,-31.3533,-64.3938
7,8,SANTA ISABEL,-36.2314,-66.9381
7,8,SANTO TOME,-28.5497,-56.0722
7,2,SORRENTO,-32.9053,-60.6807
7,4,SUDOESTE,-31.463,-64.2388
7,13,Saujil,-28.165,-66.225
7,4,TARTAGAL,-22.5099,-63.797
7,4,TENARIS SIDERCA CETE II,-33.3655,-60.1435
7,8,TOSTADO,-29.2352,-61.7577
7,6,ULLUM,-31.4557,-68.7556
7,6,URUGUA-I,-25.8766,-54.5687
7,8,VENADO TUERTO,-33.7777,-61.9555
7,4,VILLA GESELL,-37.2487,-56.9973
7,4,VILLA MARIA (LAS PLAYAS),-39.0872,-67.0881
7,4,VUELTA DE OBLIGADO,-32.5807,-60.7903
7,6,YACYRETA,-27.4827,-56.7397
8,7,Armenian-2,40.1805,44.1498
8,4,Hrazadan,40.564,44.7479
8,4,New Yerevan,40.1152,44.4973
8,6,Sevan-Hrazdan Cascade,40.5078,44.7606
8,6,Shamb,39.4743,46.1306
8,6,Spandaryan,39.6494,45.85
8,6,Tatev,39.3956,46.2578
8,4,Yerevan,40.1138,44.5038
10,13,Adelaide Showgrounds,-34.9453,138.5882
10,17,Albany Wind Farm,-35.0641,117.7977
10,8,Amcor Gawler,-34.5509,138.7659
10,8,Angaston,-34.5034,139.0246
10,2,Anglesea,-38.3861,144.1828
10,8,Angurugu,-13.8584,136.4209
10,4,Appin (Mine),-34.2082,150.7722
10,17,Ararat Wind Farm,-37.2385,143.0794
10,8,Argyle Diamond Mine,-16.7162,128.4031
10,4,Bairnsdale,-37.8429,147.5639
10,4,Ballarat Base Hospital,-37.5596,143.8469
10,6,Banimboola,-36.5344,147.4594
10,8,Bankstown Sports Club,-33.9197,151.0332
10,13,Bannerton Solar Farm,-34.6899,142.7452
10,4,Barcaldine (Len Wishaw),-23.5525,145.3142
10,13,Barcaldine KDB,-23.549,145.318
10,13,Barcaldine YD,-23.5388,145.2732
10,6,Barron Gorge,-16.8502,145.6465
10,6,Bastyan,-41.736,145.5321
10,2,Bayswater,-32.3953,150.9491
10,15,Belconnen,-35.2142,148.9872
10,4,Bell Bay (Bell Bay Three),-41.1429,146.903
10,6,Bendeela (Shoalhaven Scheme),-34.7337,150.4669
10,4,Berrimah,-12.4262,130.9195
10,15,Berwick,-38.1197,145.2665
10,13,Beryl AU,-32.353,149.468
10,8,Bidyadanga,-18.6816,121.7848
10,17,Blayney Wind Farm,-33.6219,149.1982
10,6,Blowering,-35.3986,148.2463
10,8,Blue Lake Milling Power Plant,-36.3164,140.7575
10,17,Bluff Point (Woolnorth) Wind Farm,-40.7207,144.6869
10,17,Boco Rock,-36.5763,149.1267
10,17,Bodangora Wind Farm,-32.4146,149.0998
10,6,Bogong (Mount Beauty Hydro Scheme),-36.8055,147.228
10,4,Braemar 1,-27.1109,150.9053
10,4,Braemar 2,-27.1128,150.9049
10,8,Bremer Bay Diesel Backup,-34.4018,119.3888
10,4,Brewer,-23.8817,133.8281
10,13,Brisbane BNE,-27.404,153.11
10,15,Broadmeadows,-37.6878,144.9663
10,1,Broadwater,-29.0118,153.4335
10,4,Broken Hill,-31.9863,141.4203
10,13,Broken Hill Solar Plant,-31.9867,141.3915
10,15,Brooklyn,-37.818,144.8319
10,4,Broome,-17.981,122.2046
10,6,Brown Mountain,-36.5951,149.474
10,15,Browns Plains,-27.6721,153.0663
10,4,Bulwer Island,-27.4036,153.1363
10,13,Bungala I,-32.427,137.838
10,13,Bungala II,-32.408,137.841
10,6,Burrendong,-32.6646,149.108
10,6,Burrinjuck Power Station,-35.0025,148.5834
10,4,Burrup Peninsula (Karratha Gas Plant),-20.6286,116.7821
10,4,Burrup Peninsula (Pluto Phase 1),-20.5937,116.7802
10,6,Butlers Gorge,-42.2669,146.2618
10,13,CSIRO Energy Centre,-32.8835,151.7275
10,2,Callide A,-24.334,150.628
10,2,Callide B,-24.3449,150.6197
10,2,Callide C,-24.3449,150.6182
10,4,Camballin,-18.0278,124.1621
10,15,Canning Vale,-32.0739,115.8914
10,4,Cannington Mine,-21.8601,140.9158
10,17,Canunda Wind Farm,-37.7603,140.4033
10,17,Cape Bridgewater Wind Farm,-38.3577,141.385
10,4,Cape Lambert,-20.6488,117.1407
10,17,Cape Nelson North Wind Farm,-38.3676,141.543
10,17,Cape Nelson South Wind Farm,-38.412,141.543
10,4,Cape Preston,-21.0767,116.159
10,17,Cape Sir William Grant Wind Farm,-38.3976,141.6209
10,17,Capital Hill Wind Farm,-35.166,149.5186
10,4,Capral (Aluminium Smelter),-32.7897,151.4813
10,4,Carnarvon,-24.8692,113.6754
10,6,Catagunya,-42.4524,146.5977
10,17,Cathedral Rocks Wind Farm,-34.8509,135.5852
10,4,Cawse Nickel Mine,-30.3808,121.1635
10,6,Cethana,-41.4787,146.1349
10,17,Challicum Hills Wind Farm,-37.3898,143.114
10,4,Channel Island,-12.555,130.8666
10,4,Charlestown Square,-32.9643,151.6936
10,13,Childers,-25.28,152.38
10,8,Christmas Creek Iron Ore Mine,-22.399,119.732
10,13,Clare Solar Farm,-19.8398,147.2105
10,15,Claytons,-37.9502,145.1187
10,17,Clements Gap Wind Farm,-33.5086,138.1192
10,13,Clermont Solar Farm,-22.8446,147.5855
10,8,Cloudbreak,-22.3247,119.404
10,6,Clover,-36.7853,147.2205
10,6,Cluny,-42.5064,146.6812
10,4,Cockburn,-32.2001,115.7737
10,17,Codrington Wind Farm,-38.2835,141.9547
10,17,Collgar Wind Farm,-31.5432,118.4566
10,2,Collie (Bluewaters),-33.331,116.229
10,2,Collie A,-33.3422,116.2612
10,2,Collinsville,-20.5447,147.8049
10,13,Collinsville Solar Farm,-20.5411,147.8074
10,4,Colongra,-33.2099,151.5448
10,4,Condamine A,-26.6682,150.27
10,1,Condong Sugar Mill,-28.3138,153.4341
10,6,Copeton,-29.9102,150.9235
10,8,Coral Bay Diesel Backup,-23.1521,113.7762
10,15,Corio,-38.0587,144.4056
10,17,Crookwell Wind Farm,-34.5165,149.5425
10,17,Crowlands Wind Farm,-37.1216,143.1537
10,17,Cullerin Range Wind Farm,-34.805,149.4001
10,4,Daandine,-27.0863,150.943
10,4,Dampier,-20.648,116.7219
10,4,Darling Downs,-27.1169,150.8942
10,13,Darling Downs Solar Farm,-27.1169,150.8942
10,4,Darlot Gold Mine,-27.8972,121.2698
10,6,Dartmouth (Mount Beauty Hydro Scheme),-36.5564,147.5206
10,13,Darwin DRW,-12.4157,130.8908
10,13,Daydream Solar Farm ,-20.4947,147.7707
10,13,DeGrussa,-25.55,119.317
10,8,Denham Diesel Backup,-25.9167,113.534
10,4,Derby,-17.3141,123.6441
10,6,Devils Gate,-41.3505,146.2632
10,4,Diamantina,-20.7837,139.4833
10,4,Dry Creek,-34.8475,138.5818
10,13,Dubbo,-32.273,148.658
10,15,EarthPower Biomass Plant,-33.8204,151.042
10,15,Eastern Creek,-33.8142,150.8537
10,15,Eastern Creek 2,-33.8125,150.8617
10,6,Eildon,-37.222,145.9215
10,6,Eildon Small Hydro,-37.2431,145.8974
10,8,Elliott,-17.5504,133.5393
10,13,Emerald Solar Farm,-23.5084,148.1347
10,13,Emu Downs,-30.489,115.416
10,17,Emu Downs Wind Farm,-30.4882,115.3768
10,2,Energy Brix,-38.2546,146.4137
10,8,Eraring,-33.0617,151.5223
10,4,Esperance,-33.8762,121.8998
10,17,Esperance Wind Farm Nine Mile Beach,-33.8927,121.7778
10,17,Esperance Wind Farm Ten Mile Lagoon,-33.8802,121.769
10,4,Exmouth,-21.9465,114.125
10,6,Fisher,-41.6732,146.2687
10,4,Fitzroy Crossing,-18.1956,125.5597
10,13,Gannawarra Solar Farm,-35.6762,143.4553
10,4,Geraldton,-28.7701,114.6485
10,4,German Creek,-22.9281,148.5515
10,2,Gladstone,-23.8508,151.2187
10,6,Glenbawn,-32.1097,150.9982
10,4,Glennies Creek,-32.4598,151.1286
10,15,Glenorchy,-42.8415,147.255
10,13,Goondiwindi,-28.325,150.375
10,6,Gordon,-42.7405,145.9828
10,15,Gosnells,-32.0228,116.0129
10,15,Grange Avenue,-33.7029,150.8312
10,17,Grasmere Wind Farm (Albany Stage II),-35.0507,117.7638
10,13,Greenough River Solar Farm,-28.9043,115.1119
10,13,Griffith Solar Farm,-34.3155,146.1094
10,13,Gullen,-34.61,149.476
10,17,Gullen Range Wind Farm,-34.6149,149.4597
10,17,Gunning,-34.6977,149.3861
10,6,Guthega,-36.3501,148.4135
10,15,Hallam Road,-38.0535,145.2699
10,17,Hallet 5 - The Bluff,-33.3855,138.7928
10,4,Hallett,-33.3487,138.7517
10,17,Hallett 1 Brown Hill Wind Farm,-33.3397,138.7323
10,17,Hallett 2 Hallet Hill Wind Farm,-33.5226,138.8552
10,4,Halls Creek,-18.2328,127.6619
10,13,Hamilton Solar Farm,-20.5048,147.7671
10,13,Haughton River Solar Farm,-19.733,147.0483
10,13,Hayman Solar Farm,-20.4877,147.7449
10,2,Hazelwood,-38.2731,146.3923
10,15,Henderson,-32.165,115.8008
10,15,Highbury,-34.849,138.7203
10,15,Hobart,-42.8883,147.2888
10,8,Hopetoun Diesel Backup,-33.905,120.1299
10,17,Hopetoun Wind Turbines,-33.9078,120.1297
10,13,Hughendon,-20.875,144.17
10,6,Hume,-36.1066,147.0326
10,8,Hunter,-32.836,151.4505
10,4,Hunter Valley,-32.3893,150.9664
10,1,Inkerman Sugar Mill,-19.6422,147.4016
10,1,Invicta Sugar Mill,-19.5167,147.1065
10,1,Isis Central Sugar Mill,-25.194,152.2086
10,15,Jacks Gully,-34.0734,150.7427
10,4,Jeeralang A,-38.2753,146.4263
10,4,Jeeralang B,-38.2746,146.4249
10,6,Jindabyne Dam Mini Hydro,-36.4351,148.6333
10,6,John Butters,-42.1548,145.5345
10,6,Jounama,-35.562,148.3055
10,4,Jundee Gold Mine,-26.3712,120.5776
10,4,KRC Cogeneration Plant,-27.4453,153.1185
10,1,Kalamia Sugar Mill,-19.5223,147.4152
10,8,Kalamunda,-31.9768,115.9988
10,17,Kalbarri Wind Farm,-27.8995,114.1946
10,4,Kalgoorlie (Parkeston),-30.7378,121.5065
10,4,Kalgoorlie Nickel Smelter,-30.8737,121.4842
10,4,Kambalda,-31.1919,121.6741
10,6,Kangaroo Valley (Shoalhaven Scheme),-34.723,150.4795
10,13,Karadoc Solar Farm,-34.4154,142.2521
10,6,Kareeya,-17.767,145.5779
10,4,Karratha,-20.7626,116.8375
10,4,Katherine,-14.4587,132.2445
10,4,Kemerton,-33.1633,115.7805
10,17,Kiata Wind Farm,-36.3966,141.7474
10,13,Kidston I,-18.89,144.14
10,8,King Island (Currie),-39.9388,143.892
10,2,Kogan Creek,-26.9177,150.7493
10,6,Koombooloomba,-17.8313,145.6034
10,8,Kununurra,-15.7796,128.7395
10,4,Kwinana,-32.197,115.7759
10,4,Kwinana (Alcoa Refinery),-32.1946,115.7797
10,4,Kwinana Cogeneration,-32.2225,115.7661
10,4,Kwinana High Efficiency Gas Turbine Plant,-32.1973,115.7754
10,4,Kwinana NewGen,-32.202,115.7728
10,4,Kwinana Swift,-32.2243,115.7783
10,4,Ladbroke Grove,-37.4567,140.7827
10,17,Lake Bonney Stage 1 Wind Farm,-37.7815,140.4058
10,17,Lake Bonney Stage 2 Wind Farm,-37.8149,140.4195
10,17,Lake Bonney Stage 3 Wind Farm,-37.7505,140.393
10,13,Lake Cargelligo CSP,-33.311,146.4092
10,6,Lake Echo,-42.2537,146.6207
10,6,Lake Glenmaggie,-37.9047,146.8011
10,6,Lake Keepit,-30.8792,150.4914
10,6,Lake William Hovell,-36.9129,146.3921
10,13,Lakeland QLD,-15.869,144.862
10,15,Landfill Management Services Shoal Bay,-12.3892,130.9254
10,8,Laverton,-28.6216,122.3965
10,8,Laverton (Granny Smith Gold Mine),-28.8096,122.415
10,4,Laverton North,-37.8416,144.7887
10,4,Leichhardt,-20.7835,139.4864
10,4,Leinster Nickel Mine,-27.8141,120.699
10,6,Lemonthyme,-41.6038,146.139
10,17,Leonards Hill,-37.4271,144.1222
10,4,Leonora,-28.8811,121.3213
10,6,Liapootah,-42.3763,146.5099
10,2,Liddell,-32.3713,150.9776
10,13,Liddell Solar Thermal,-32.3761,150.9797
10,13,Lilyvale Solar Farm,-23.0875,148.439
10,17,Lincoln Gap,-32.5645,137.5572
10,4,Longford,-38.2236,147.1657
10,8,Lonsdale,-35.1097,138.491
10,6,Lower Lake Margaret,-42.0147,145.5261
10,6,Lower Rubicon,-37.3027,145.8458
10,2,Loy Yang A,-38.2536,146.5746
10,2,Loy Yang B,-38.2564,146.5864
10,15,Lucas Heights I,-34.0293,151.0021
10,15,Lucas Heights II,-34.0481,150.9739
10,17,Macarthur Wind Farm,-38.0648,142.1844
10,4,Mackay,-21.1446,149.1591
10,6,Mackintosh,-41.6997,145.6461
10,1,Macknade Sugar Mill,-18.589,146.258
10,15,Mandurah,-32.5079,115.759
10,13,Manildra Solar Farm,-33.1733,148.718
10,8,Marble Bar Diesel Backup,-21.1649,119.7419
10,1,Maryborough,-25.5476,152.7171
10,1,Maryvale Mill,-38.1809,146.4479
10,4,McArthur River Mine,-16.4335,136.0935
10,6,McKay Creek (Mount Beauty Hydro Scheme),-36.8584,147.2345
10,6,Meadowbank,-42.6112,146.8457
10,8,Meekatharra,-26.5952,118.483
10,4,Melbourne,-37.8086,144.9685
10,4,Merredin,-31.5423,118.227
10,4,Mica Creek,-20.7776,139.4906
10,2,Millmerran,-27.9615,151.2789
10,4,Mintaro,-33.9031,138.7383
10,17,Moorabool North Wind Farm,-37.655,144.1913
10,17,Moorabool South Wind Farm,-37.7402,144.1622
10,4,Moranbah,-21.9851,148.0246
10,4,Moranbah North,-21.8967,147.9507
10,13,Moree,-29.5722,149.8669
10,15,Mornington,-38.3916,144.8553
10,4,Mortlake,-38.0632,142.6675
10,17,Mortons Lane Wind Farm,-37.8413,142.4653
10,4,Mount Keith Nickel Mine,-27.2146,120.548
10,4,Mount Magnet,-28.0871,117.8327
10,17,Mount Millar Wind Farm,-33.6255,136.7039
10,8,Mount Stuart,-19.338,146.8512
10,1,Mt Gambier,-37.8388,140.8057
10,17,Mt Gellibrand Wind Farm,-38.2587,143.8019
10,17,Mt Mercer Wind Farm,-37.8317,143.8892
10,2,Mt Piper,-33.3589,150.0313
10,15,Mugga Lane,-35.3953,149.1458
10,13,Mugga Lane Solar Park,-35.3989,149.146
10,2,Muja C,-33.446,116.3062
10,2,Muja D,-33.4464,116.3074
10,1,Mulgrave,-17.0932,145.7887
10,17,Mumbida Wind Farm,-28.9918,114.9599
10,4,Mungarra,-28.8893,115.1177
10,4,Mungullah,-24.8911,113.7095
10,2,Munmorah,-33.2117,151.5418
10,17,Murra Warra Wind Farm,-36.4333,142.3182
10,6,Murray 1,-36.2467,148.1901
10,6,Murray 2,-36.2423,148.1362
10,4,Murrin Murrin (Nickel Mine),-28.9238,121.3293
10,17,Musselroe,-40.7798,148.0097
10,1,Narrogin Bioenergy Plant,-32.9521,117.1916
10,13,Narromine,-32.224,148.256
10,4,Neerabup,-31.6712,115.8021
10,4,Newman Iron Ore Mine,-23.3443,119.7086
10,4,Newport,-37.8415,144.8942
10,8,Nhulunbuy,-12.1889,136.6872
10,6,Nieterana,-42.2686,146.2629
10,8,Nine Network,-33.811,151.1966
10,15,Noranda,-31.8654,115.8773
10,13,Normanton,-17.681,141.05
10,8,Norseman Mine,-32.1963,121.7943
10,17,North Brown Hill  Wind Farm,-33.3093,138.7296
10,4,North Sydney,-33.8398,151.2069
10,13,Northam,-31.652,116.711
10,13,Numurkah Solar Farm,-36.1592,145.4746
10,6,Nymboida,-29.9257,152.7417
10,13,Nyngan Solar Plant,-31.5527,147.0854
10,4,Oakey,-27.4183,151.6797
10,13,Oakey 1,-27.406,151.647
10,13,Oakey 2,-27.412,151.655
10,17,Oakland Hills Wind Farm,-37.6871,142.5467
10,6,Oaky,-30.5751,152.069
10,4,Oaky Creek,-22.9878,148.5817
10,4,Onslow,-21.6582,115.099
10,6,Ord River,-16.1201,128.7383
10,4,Osborne,-34.798,138.5079
10,4,Owen Springs,-23.8636,133.8255
10,6,Paloona,-41.2826,146.249
10,4,Paraburdoo,-23.2233,117.6133
10,4,Paraburdoo (Standby),-23.2238,117.6137
10,13,Parkes Solar Farm,-33.1027,148.075
10,15,Pedler Creek,-35.2023,138.5021
10,4,Pelican Point,-34.765,138.5053
10,13,Perth Zoo,-31.9767,115.8548
10,13,Peterborough SA,-32.945,138.905
10,6,Pindari,-29.3886,151.2442
10,4,Pine Creek,-13.7856,131.8624
10,4,Pinjar,-31.5568,115.8204
10,4,Pinjarra Bauxite Mine and Alumina Refinery,-32.6473,115.9469
10,1,Pioneer Sugar Mill,-19.5575,147.3308
10,1,Plane Creek Sugar Mill,-21.4282,149.2159
10,4,Plutonic Gold Mine,-25.311,119.4508
10,6,Poatina,-41.8115,146.9192
10,4,Port Hedland,-20.4283,118.5498
10,4,Port Hedland (Smaller),-20.3782,118.5384
10,8,Port Lincoln,-34.7003,135.8044
10,8,Port Stanvac,-35.1104,138.4915
10,1,Proserpine Sugar Mill,-20.3985,148.5797
10,4,Quarantine,-34.7793,138.5224
10,1,Racecourse Mill,-21.1635,149.1344
10,8,Ravensthorpe,-33.61,120.36
10,15,Red Hill,-31.8317,116.0992
10,2,Redbank,-32.5802,151.0719
10,6,Reece,-41.7238,145.1359
10,15,Remount,-41.395,147.1554
10,6,Repulse,-42.5077,146.647
10,8,Revesby Workers Club,-33.9534,151.0137
10,15,Rochedale,-27.5591,153.1236
10,15,Rockingham,-32.2863,115.8154
10,1,Rocky Point Sugar Sugar Mill,-27.7334,153.3276
10,15,Roghan Road,-27.3388,153.0344
10,13,Rollingstone QLD,-19.03,146.394
10,4,Roma,-26.5772,148.8402
10,4,Ron Goodin,-23.7091,133.8912
10,13,Ross River,-19.424,146.715
10,6,Rowallan,-41.7295,146.2176
10,8,Roy Hill,-22.4812,119.9472
10,13,Royalla Solar Farm,-35.4897,149.1435
10,6,Rubicon,-37.3272,145.8605
10,13,Rugby Run Solar Farm,-22.1405,147.9188
10,17,Sapphire Wind Farm,-29.6997,151.4119
10,8,Savannah Nickel Mine,-17.3631,128.0331
10,15,Shenton Park WMRC Project,-31.9577,115.7924
10,15,Shepparton Biogas Generation Plant,-36.3218,145.379
10,4,Smithfield Energy,-33.85,150.9495
10,17,Snowtown North,-33.714,138.1402
10,17,Snowtown South,-33.8302,138.1184
10,4,Snuggery,-37.6646,140.4156
10,4,Solomon Iron Ore Mine,-22.1581,117.9849
10,4,Somerton,-37.6318,144.9531
10,15,South Cardup (Shale Road Landfill),-32.2664,116.0193
10,1,South Johnstone,-17.6057,145.991
10,15,Springvale,-37.9733,145.1396
10,8,St George Leagues Club,-33.9748,151.1294
10,2,Stanwell,-23.5097,150.3195
10,1,Stapylton Green Energy,-27.7334,153.2463
10,17,Starfish Hill Wind Farm,-35.5678,138.1432
10,17,Studland Bay (Woolnorth) Wind Farm,-40.7788,144.7362
10,13,Summerhill,-32.891,151.65
10,13,Sun Metals Solar Farm,-19.3355,146.8885
10,1,Suncoast Gold Macadamia,-26.2261,152.6981
10,13,Sunraysia,-34.804,143.491
10,4,Sunrise Dam,-29.0927,122.4393
10,13,Susan River,-25.32,152.405
10,13,Swan Hill,-35.342,143.518
10,4,Swanbank E,-27.6554,152.8179
10,4,Symex Port Melbourne,-37.8298,144.9444
10,1,Tableland,-17.1193,145.345
10,4,Tahmoor,-34.2482,150.5808
10,13,Tailem Bend Solar Farm,-35.2708,139.4924
10,4,Tallawarra,-34.5228,150.8081
10,15,Tamala Park,-31.7078,115.7266
10,4,Tamar Valley,-41.1401,146.9036
10,17,Taralga Wind Farm,-34.4314,149.8652
10,2,Tarong,-26.7824,151.9153
10,8,Tarong (Oil),-26.7858,151.9172
10,2,Tarong North,-26.7758,151.9146
10,6,Tarraleah,-42.3012,146.4572
10,15,Tatura Biogas Generation Plant,-36.4793,145.235
10,15,Tea Tree Gully,-34.8303,138.7129
10,4,Telfer Gold Mine,-21.7129,122.2091
10,4,Tennant Creek,-19.6549,134.1753
10,4,Teralba,-32.9455,151.6119
10,6,Terminal Storage,-34.8393,138.7112
10,6,The Drop,-35.6043,145.7837
10,15,Ti Tree Bioenergy,-27.6802,152.6593
10,8,Timber Creek,-15.6562,130.479
10,6,Tods Corner,-41.9707,146.7938
10,4,Tomago Aluminium Smelter,-32.8217,151.7178
10,17,Toora Wind Farm,-38.6451,146.3441
10,4,Torrens Island A,-34.8068,138.5213
10,4,Torrens Island B,-34.8052,138.5226
10,4,Tower Mine,-34.2207,150.7179
10,4,Townsville,-19.2011,146.6187
10,15,Traralgon Network Support Station,-38.1793,146.5654
10,6,Trevallyn,-41.4226,147.1119
10,6,Tribute,-41.8129,145.6538
10,1,Tully Sugar Mill,-17.9373,145.9267
10,6,Tumut 1 (Upper Tumut),-35.9517,148.3637
10,6,Tumut 2 (Upper Tumut),-35.8814,148.3672
10,6,Tumut 3,-35.6112,148.2917
10,6,Tungatinah,-42.2967,146.4565
10,13,University of Queensland (St Lucia Campus) Solar Array,-27.495,153.0101
10,6,Upper Lake Margaret,-42.0046,145.5437
10,4,Uranquinty,-35.1794,147.2157
10,13,Uterne Solar,-23.7685,133.8682
10,13,Valdora,-26.56,153.025
10,2,Vales Point B,-33.1607,151.5431
10,4,Valley (Peaking Facility),-38.2536,146.5892
10,1,Victoria Sugar Mill,-18.6508,146.2016
10,1,Visy Paper Gibson Island,-27.4405,153.1158
10,1,Visy Pulp and Paper Tumut,-35.2959,148.1371
10,4,Wadeye,-14.2602,129.5368
10,4,Wagerup,-32.916,115.9186
10,4,Wagerup Bauxite Mine and Alumina Refinery,-32.9145,115.917
10,17,Walkaway Wind Farm,-28.9229,114.9282
10,2,Wallerawang C,-33.4028,150.0833
10,8,Warmun,-17.0259,128.2113
10,6,Warragamba,-33.8832,150.5965
10,4,Warrego,-19.4434,133.8236
10,17,Waterloo Wind Farm,-34.001,138.9109
10,17,Wattle Point Wind Farm,-35.1104,137.7058
10,17,Waubra Wind Farm,-37.3575,143.6037
10,6,Wayatinah,-42.4272,146.5347
10,4,Weddell,-12.5771,130.9502
10,13,Wemen Solar Farm,-34.8027,142.5457
10,4,West Angelas Mine,-23.1546,118.7245
10,8,West Illawarra Leagues Club,-34.4515,150.8429
10,8,West Kalgoorlie,-30.7806,121.4234
10,6,West Kiewa (Mount Beauty Hydro Scheme),-36.7601,147.186
10,15,West Nowra (Shoalhaven),-34.882,150.5515
10,8,Western Suburbs Leagues Club (Campbelltown),-34.0513,150.8329
10,13,White Rock,-29.765,151.553
10,13,Whitsunday Solar Farm,-20.4949,147.7481
10,15,Whitwood Road,-27.659,152.8237
10,13,Whyalla SSE,-33.007,137.558
10,4,Wilga Park,-30.3634,149.6772
10,13,Williamsdale,-35.571,149.128
10,6,Wilmot,-41.4833,146.1251
10,13,Wilpena Solar Farm,-31.5234,138.6198
10,8,Wiluna,-26.5922,120.2185
10,4,Wiluna Gold Mine,-26.6316,120.2519
10,4,Windimurra Vanadium Mine,-28.2933,118.5371
10,17,Windy Hill Wind Farm,-17.5922,145.5306
10,15,Wingfield I,-34.8348,138.5572
10,15,Wingfield II,-34.8321,138.5489
10,6,Wivenhoe,-27.3952,152.6092
10,6,Wivenhoe Hydroelectric,-27.3722,152.632
10,4,Wodgina,-21.1739,118.6747
10,15,Wollert,-37.583,145.0487
10,17,Wonthaggi Wind Farm,-38.6037,145.5462
10,15,Woodlawn Bioreactor,-35.059,149.5769
10,17,Woodlawn Wind Farm,-35.0861,149.5716
10,15,Woodman Point,-32.1424,115.7713
10,2,Worsley,-33.2355,116.0688
10,4,Worsley Cogeneration,-33.2365,116.0637
10,6,Wyangala A,-33.981,148.9473
10,15,Wyndham,-37.9375,144.5902
10,4,Xstata X41,-20.7437,139.4803
10,2,Yallourn,-38.177,146.3428
10,17,Yaloak South Wind Farm,-37.7281,144.2408
10,17,Yambuk Wind Farm,-38.3079,142.0151
10,6,Yarrawonga,-36.0094,145.9995
10,4,Yarwun,-23.8306,151.1519
10,13,Yatpool,-34.407,142.179
10,4,Yulara,-25.2323,130.9912
10,4,Yurralyi Maya (Karratha Seven Mile),-20.762,116.742
11,6,Abwinden-Asten,48.248,14.4305
11,6,Altenmarkt,46.7667,15.55
11,6,Arnstein,47.0167,15.1667
11,6,Aschach,48.3853,14.023
11,6,Bischofshofen,47.407,13.2205
11,6,Braunau-Simbach,48.244,13.006
11,6,Dionysen,47.4167,15.2833
11,4,Donaustadt,48.2,16.4633
11,6,Ering-Frauenstein,48.2194,13.16
11,6,Erzbach,47.6,14.7333
11,6,Feistritz-Ludmannsdorf,46.5347,14.1712
11,6,Feldkirchen,46.8638,13.3355
11,6,Ferlach Maria Rain,46.5462,14.2985
11,6,Fisching,47.1667,14.7333
11,6,Freudenau Danube,48.1764,16.4811
11,6,Friesach,47.1667,15.3333
11,6,Funsingau,47.2354,12.0583
11,6,Gabersdorf,46.7772,15.5842
11,6,Gaming,48.1766,16.4813
11,6,Gerlos,47.2342,11.8997
11,6,Gratkorn,47.1333,15.35
11,6,Greifenstein,48.3553,16.2424
11,6,Hieflau,47.6,14.7333
11,6,Hieflau-Erzbach,47.6,14.7333
11,6,Jochenstein,48.5184,13.7076
11,6,KW Amlach,46.8142,12.7618
11,6,KW Imst,47.2122,10.7215
11,6,KW Jenbach,47.3932,11.7886
11,6,KW Kaunertal,47.0678,10.6652
11,6,KW Kühtai,47.2078,11.0057
11,6,KW Silz,47.2696,10.9678
11,6,Kaprun Limberg II,47.1985,12.7223
11,6,Kaprun Oberstufe,47.1968,12.7192
11,6,Kaprun main stage,47.2591,12.7389
11,6,Kellerberg,46.67,13.6886
11,6,Klammsee,47.2591,12.7389
11,6,Klaus,47.8314,14.1572
11,6,Kopswerk II,46.975,10.043
11,6,Kreuzbergmaut,47.4412,13.2108
11,6,Kreuzeck days storage,46.8727,13.3117
11,6,Krippau,47.6833,14.7
11,6,Landl,47.65,14.7167
11,6,Laufnitzdorf,47.3,15.3167
11,6,Lebring,46.8522,15.5383
11,6,Leoben,47.3833,15.1
11,6,Losenstein,47.9243,14.4367
11,6,Low Tuxbach - Small power plant Stillupp,47.1485,11.8225
11,6,Lünerseewerk,47.074,9.874
11,6,Malta Secondary school,47.0659,13.3539
11,6,Malta main stage,47.0659,13.3539
11,6,Mandling,47.4,13.5667
11,6,Mayrhofen,47.1581,11.8501
11,6,Melk,48.2232,15.3042
11,6,Mellach run power plant,46.8833,15.5167
11,6,Neuötting,40.1247,-8.7751
11,6,Niklai,46.8167,13.3167
11,6,Nussdorf near Vienna,47.2167,14.4833
11,6,Oberaudorf Ebbs,47.6413,12.1989
11,6,Obervermuntwerk,46.9271,10.0539
11,6,Obervogau,46.745,15.5847
11,6,Ottensheim-Wilhering,48.3166,14.1512
11,6,Passau-Ingling,48.5536,13.4371
11,6,Paternion,46.7209,13.6453
11,6,Peggau,47.2,15.35
11,6,Pernegg,47.3598,15.3424
11,6,Pichlern,47.65,13.6667
11,6,Rabenstein,47.35,13.6833
11,6,Retznei,46.7333,15.5667
11,6,Rodundwerk I,47.085,9.8813
11,6,Rodundwerk II,47.0847,9.8744
11,6,Rosegg-St. James,46.5696,14.0268
11,6,Rosenau,48.489,14.6288
11,6,Schonau,48.3946,14.7302
11,6,Schwabeck,46.658,14.8726
11,6,Schwarzach,47.3152,13.1389
11,4,Simmering,48.1815,16.4334
11,6,St. Georgen,47.5333,14.3667
11,6,St. Johann,47.3386,13.1974
11,6,St. Martin,47.4467,15.2849
11,6,St. Pantaleon,48.0076,12.8942
11,6,St. Veit,47.3214,13.1744
11,6,Staning,48.1007,14.4568
11,6,Steinfeld,46.7656,13.2717
11,6,Ternberg,47.9333,14.35
11,4,Timelkam,48.0122,13.5895
11,6,Triebenbach,47.5,14.4667
11,6,Tuxbach,47.1485,11.8225
11,6,Urreiting,47.3749,13.2101
11,6,Vermuntwerk,46.9684,10.0599
11,6,Vienna-Freudenau,48.1766,16.4814
11,6,Villach,46.6329,13.8294
11,6,Walgauwerk,47.192,9.6815
11,6,Wallnerau Salzach stage,47.316,13.141
11,6,Wallnerau underwater stage,47.3833,12.6
11,6,Wallsee-Mitterkirchen,48.1666,14.6953
11,6,Weissenegg,46.8167,15.8667
11,6,Werfen-Pfarrwerfen,47.4698,13.1945
11,6,Weyer,48.1465,14.1176
11,17,Wind Park Bruck an der Leitha,48.0338,16.7264
11,17,Wind Park Hollern II,48.09,16.844
11,17,Wind Park Petronell-Carnuntum II,48.09,16.844
11,17,Windpark Bruck-Göttlesbrunn,48.095,16.89
11,6,Ybbs-Persenbeug,48.1892,15.0682
12,4,Astara ES,38.456,48.875
12,8,Azerbaijan TPP,40.78,46.9901
12,4,Baku ES,40.3734,49.9192
12,4,Baku TEC,40.3734,49.9192
12,6,Gusar,41.3979,48.3308
12,4,Janub,39.8943,48.9173
12,4,Khachmaz ES,41.4635,48.806
12,6,Mingechevir,40.79,47.0287
12,4,Sangachal ES,40.1794,49.47
12,6,Shamkir,40.9487,46.168
12,4,Shimal,40.4995,50.2077
12,4,Sumqayit,40.6036,49.6332
12,6,Varvara,40.6837,47.0926
12,6,Yenikend,40.9193,46.2829
14,4,Al Dur Power and Water,25.9714,50.6076
14,4,Al Ezzel Power Station,26.2175,50.6595
14,4,Alba Power Station,26.0945,50.6008
14,13,Awali,26.1,50.58
14,8,Hawar Power ad Water Station,26.1981,50.5919
14,4,Hidd Power and Water station 1,26.2223,50.6621
14,4,Rifa'a Power Station,26.1199,50.5889
14,4,Sitra Power an Water Station,26.1833,50.6237
15,8,Amnura,24.6301,88.4006
15,4,Ashuganj (Aggreko),24.0426,91.0158
15,4,Baghabari GT 1,24.1361,89.5933
15,8,Barabkunda (Regent),22.5713,91.6841
15,4,Barishal GT-unit-1 2,22.6588,90.3373
15,2,Barupukuria ST 1,25.5502,88.9527
15,8,Bera Peaking,24.0895,89.6176
15,8,Bheramara GT (Unit-1 2 3),24.0487,89.0173
15,4,Bhola CCPP GT-1 2 ST,22.4786,90.7101
15,4,Bogra GBB,24.8408,89.3506
15,8,CLCPC Keranigonj,23.6473,90.3473
15,4,Chittagong Roazan,22.457,91.9784
15,8,Faridpur,23.6183,89.7733
15,4,Fenchuganj (Barakatullah),24.6863,91.9189
15,4,Feni (Doreen),23.9186,90.6926
15,4,Ghorasal ST :Unit-3,23.9797,90.637
15,13,Gopalganj,26.585,84.145
15,8,Gopalganj Peaking,23.9797,90.637
15,8,Hathazari,22.4918,91.8051
15,4,Hobiganj (Confidence-EP),24.2639,91.379
15,4,Horippur Power CCPP,23.6839,90.5314
15,8,Jamalpur RPP,24.9103,89.9607
15,4,Jangalia (Summit),23.4289,91.17
15,8,Jhulda,22.2972,91.8062
15,6,Kaptai Hydro:Unit-1 2 3 4 5,22.495,92.216
15,8,Karanigonj (Powerpac),23.6783,90.4295
15,8,Katakhali (Peaking),24.366,88.6763
15,8,Kathpotti 52 mw,23.5699,90.4804
15,4,Khulna (KPCL-2),22.8646,89.5357
15,8,Kodda Gajipur,23.9904,90.3429
15,8,Madanganj (Summit),23.59,90.5153
15,4,Meghnaghat CCPP,23.6112,90.6007
15,4,Mymensingh,24.7611,90.4193
15,8,Narshingdi (Doreen),23.9186,90.6926
15,8,Noapara (khanjahan ali),22.3602,91.7812
15,8,Northen 55 MW,23.8094,90.2433
15,8,Pagla (DPA),23.6584,90.4584
15,8,Patenga 50 MW,22.2385,91.8129
15,8,Rangpur GT,25.7233,89.2432
15,8,Santahar Peaking,24.7972,88.9839
15,4,Shahjibazar 330 MW,24.2532,91.3751
15,4,Shiddirganj ST,23.6846,90.517
15,8,Shikalbaha Peaking (GT),22.3227,91.8651
15,4,Siddhirganj (Dutch Bangla),24.3884,89.7436
15,8,Siddirgonj (Desh),23.6825,90.5252
15,4,Summit Barisal 110MW,22.659,90.3364
15,4,Summit Bibiana-2,24.6358,91.6587
15,4,Summit Power  Comilla,23.44,91.1869
15,4,Summit Power  Maona,24.2276,90.4201
15,4,Summit Power (Madhabdi+Ashulia),23.8901,90.0323
15,4,Summit Power Rupgonj,23.755,90.5496
15,4,Sylhet (Energyprima),24.9096,91.83
15,13,Teknaf,20.982,92.256
15,8,Thakurgaon (RZ),26.0383,88.4256
15,8,Titas(Dautkandi),23.5461,90.7779
15,4,Tongi GT,23.897,90.4123
15,4,Ullapara (Summit),24.3071,89.5512
17,4,Bereza SDPP Thermal Power Plant Belarus,52.4538,25.1926
17,13,Blizhnyaya Rechitsa,53.64,31.55
17,13,Blizhnyaya Rechitsa 2,53.625,31.6
17,4,Bobruisk CHP-2 Power Plant Belarus,53.1895,29.2055
17,13,Bragin EP,51.784,30.2559
17,13,Brahin,51.797,30.209
17,13,Chechevicy,52.92,30.85
17,13,Elsk,51.77,29.155
17,4,Gomel-1 CHP Power Plant Belarus,52.4141,31.0031
17,4,Gomel-2 CHP Power Plant Belarus,52.4492,30.8167
17,4,Grodno CHP-2 Power Plant Belarus,53.6675,23.9272
17,4,Lida Power Plant Belarus,53.9011,25.291
17,4,Lukoml Thermal Power Plant Belarus,54.6803,29.1341
17,4,Minsk-3 CHP CCGT Power Plant,53.8799,27.6476
17,4,Minsk-4 CHP CCGT Power Plant,53.872,27.4022
17,4,Minsk-5 CHP CCGT Power Plant,53.612,27.954
17,4,Mogilev CHP-2 Thermal Power Plant Ukraine,53.8128,30.3421
17,4,Mozyr Thermal Power Plant Belarus,51.9049,29.3136
17,4,Novopolotsk Thermal Power Plant Belarus,55.5265,28.549
17,4,Orsha Cogeneration CCGT Power Plant Belarus,54.4809,30.3926
17,13,Smorgon,54.41,26.48
17,4,Svetlogorsk CHP Power Plant Belarus,52.6274,29.7708
17,4,Vitebsk Thermal Power Plant Belarus,55.1689,30.1355
17,4,Zhodino CHP CCGT Power Plant,54.0941,28.3505
18,8,AALTER TJ,51.0902,3.4469
18,4,ANGLEUR TG 41,50.6177,5.5837
18,1,AWIRS 4,50.5851,5.418
18,4,Aalst Syral GT,50.936,4.0355
18,4,Aalst Syral ST,50.936,4.0355
18,4,Amercoeur 1 R TGV,50.4304,4.3955
18,17,Aspiravi Wuustwezel,51.2488,3.2166
18,8,BEERSE TJ,51.3193,4.853
18,8,BUDA TJ,50.9079,4.4155
18,6,BUTGENBACH,50.4359,6.2106
18,17,Belwind Phase 1,51.66,2.8
18,15,Beveren 2 Indaver,51.2119,4.2563
18,4,Beveren Ineos Phenolchemie,51.2119,4.2563
18,8,CIERREUX TJ,50.2444,5.9302
18,6,COO,50.3849,5.8618
18,7,DOEL 4,51.3254,4.2597
18,4,DROGENBOS DM 51,50.8023,4.299
18,4,DROGENBOS GT0,50.8023,4.299
18,4,DROGENBOS TGV,50.8023,4.299
18,8,Deux-Acren TJ,50.7303,3.8531
18,15,Electrawinds biomassa Oostende,51.2234,2.9119
18,17,Froidchapelle Wind,50.2233,4.32
18,4,HAM-GENT WKK,51.05,3.7167
18,6,HEID-DE-GOREUX 1,50.426,5.7328
18,4,HERDERSBRUG STEG,51.2629,3.2112
18,17,HERDERSBRUG WIND,51.2622,3.2132
18,6,HU AMPSIN-NEUVILLE,50.5335,5.2962
18,6,HU ANDENNE,50.4928,5.07
18,6,HU GRAND-MALADES,50.4665,4.8992
18,6,HU IVOZ-RAMET,50.5922,5.4613
18,6,HU LIXHE,50.7517,5.6863
18,6,HU MONSIN,50.6517,5.6308
18,4,INESCO WKK,51.2198,4.3266
18,15,IVBO,51.2089,3.2242
18,15,Incinerateur THUMAIDE (IPALLE),50.5415,3.6301
18,15,Intradel Herstal,50.6642,5.6235
18,13,Kristal,51.203,5.265
18,15,LANGERBRUGGE STORA ST 2,51.05,3.7167
18,2,LANGERLO 1,50.9405,5.4906
18,4,LANGERLO 4 REPOWERING,50.934,5.4784
18,6,La Vierre,49.733,5.377
18,13,Loghidden City,51.273,4.288
18,4,Marcinelle Energie (Carsid),50.4138,4.4067
18,8,Noordschote TJ,50.9548,2.8103
18,17,Northwind,51.6186,2.8998
18,6,PLATE TAILLE T,50.1884,4.3861
18,4,RINGVAART STEG,51.1049,3.7257
18,1,RODENHUIZE 4,51.1341,3.777
18,17,RODENHUIZE WIND,51.1357,3.7878
18,4,SAINT-GHISLAIN STEG,50.4719,3.8248
18,17,SCHELLE WIND,51.1265,4.3226
18,15,Schaerbeek Siomab ST1,50.8504,4.3488
18,4,T-power Beringen,51.0586,5.1056
18,7,TIHANGE 1N,50.5342,5.2751
18,7,TIHANGE 3,50.5342,5.2751
18,17,Thorntonbank - C-Power - Area NE,51.556,2.9689
18,17,Thorntonbank - C-Power - Area SW,51.54,2.921
18,17,WM Park Powerport Zeebrugge,51.329,3.1819
18,13,Wilmarsdonk,51.2709,4.3812
18,15,Wilrijk Isvag,51.1673,4.3951
18,17,Windvision Estinnes WIND,50.4116,4.0804
18,17,ZEEBRUGGE WIND,51.3596,3.2219
18,8,Zedelgem TJ,51.1424,3.1368
18,4,Zeebrugge 2 Fluxys,51.329,3.1819
18,8,Zeebrugge TJ,51.329,3.1819
18,4,Zelzate 2 Knippegroen,51.1587,3.8068
18,8,Zelzate TJ,51.1896,3.8078
18,4,Zwijndrecht Lanxess GT,51.2382,4.3408
18,4,Zwijndrecht Lanxess ST,51.2382,4.3408
20,4,Akpakpa,6.3506,2.4295
20,8,Cotonou,6.4263,2.3066
22,6,Basochhu Hydroelectric Power Plant Bhutan,27.4254,89.9043
22,6,Chhukha Hydroelectric Power Plant Bhutan,27.1104,89.5313
22,6,Kurichhu Hydro-electric Power Station Bhutan,27.2162,91.2035
22,6,Rangjung Small Hydroelectric Power Plant Bhutan,27.3567,91.6497
22,6,Tala Hydroelectric Power Plant Bhutan,27.036,89.5953
23,4,Aranjuez Power Plant Bolivia,-19.0394,-65.2697
23,6,Botijlaca Hydroelectric Power Plant Bolivia,-16.1925,-68.1405
23,4,Bulo Bulo OCGT Power Plant Bolivia,-17.2424,-64.5409
23,6,Cahua Hydroelectric Power Plant Bolivia,-16.0456,-67.9939
23,4,Carrasco OCGT Power Plant Bolivia,-17.2125,-64.5275
23,6,Chojlla Hydroelectric Power Plant Bolivia,-16.4124,-67.7725
23,6,Chururaqui Hydroelectric Power Plant Bolivia,-16.105,-68.067
23,13,Cobija,-11.025,-68.815
23,6,Corani Hydroelectric Power Plant Bolivia,-17.2122,-65.8758
23,6,Cutichucho Hydroelectric Power Plant Bolivia,-16.1425,-68.1158
23,4,El Alto (El Kenko) Power Plant Bolivia,-16.5653,-68.1811
23,4,Entre Rios Power Plant Bolivia,-21.52,-64.1714
23,4,Guaracachi CCGT Power Plant Bolivia,-17.7875,-63.1521
23,6,Harca Hydroelectric Power Plant Bolivia,-16.0784,-68.0336
23,6,Huaji Hydroelectric Power Plant Bolivia,-16.0416,-67.9566
23,4,Karachipampa Power Plant Bolivia,-19.551,-65.722
23,6,Sainani Hydroelectric Power Plant Bolivia,-16.124,-68.09
23,4,Santa Cruz Power Plant Bolivia,-17.7549,-63.1398
23,6,Santa Isabel Hydroelectric Power Plant Bolivia,-17.1916,-65.8232
23,6,Santa Rosa Hydroelectric Power Plant Bolivia,-16.1318,-68.1095
23,6,Tiquimani Hydroelectric Power Plant Bolivia,-16.2072,-68.1235
23,13,Uyuni Colcha K,-20.75,-67.65
23,4,Valle Hermoso Power Plant Bolivia,-17.4302,-66.1169
23,6,Yanacachi Norte Hydroelectric Power Plant Bolivia,-16.3887,-67.7373
23,13,Yunchara,-21.83,-65.23
23,6,Zongo Hydroelectric Power Plant Bolivia,-16.2719,-68.1227
24,6,Bocac Hydroelectric Power Plant Bosnia and Herzegovina,44.5075,17.1618
24,6,Capljina Pumped Storage Power Plant Bosnia and Herzegovina,43.0133,17.8041
24,6,Dubrovnik Hydroelectric Power Plant Bosnia and Herzegovina,42.6037,18.2357
24,2,Gacko Coal CHP Power Plant Bosnia and Herzegovina,43.1724,18.5128
24,6,Grabovica Hydroelectric Power Plant Bosnia and Herzegovina,43.5872,17.7189
24,6,Jablanica Hydroelectric Power Plant Bosnia and Herzegovina,43.6924,17.7325
24,6,Jajce I Hidroelektrana Bosnia and Herzegovina,44.3774,17.2816
24,6,Jajce II Hidroelektrana Bosnia and Herzegovin,44.4279,17.2404
24,2,Kakanj CHP Power Plant Bosnia and Herzegovina,44.0899,18.1143
24,6,Krupa Hydroelectric Power Plant Bosnia and Herzegovina,44.5624,17.135
24,6,Mostar Hydroelectric Power Plant Bosnia and Herzegovina,43.3776,17.8449
24,6,Mostarsko Blato Hydroelectric Power Plant Bosnia and Herzegovina,43.2989,17.794
24,6,Pec Mlini Hydroelectric Power Plant Bosnia and Herzegovina,43.3375,17.3261
24,6,Rama Hydroelectric Power Plant Bosnia and Herzegovina,43.747,17.6758
24,6,Salakovac Hydroelectric Power Plant Bosnia and Herzegovina,43.4478,17.8369
24,6,Trebinje I Hydroelectric Power Plant Bosnia and Herzegovina,42.7338,18.4971
24,6,Trebinje II Hydroelectric Power Plant Bosnia and Herzegovina,42.7066,18.3805
24,2,Tuzla CHP Power Plant Bosnia and Herzegovina,44.5215,18.6056
24,2,Ugljevik CHP Coal Power Plant Bosnia and Herzegovina,44.6829,18.9671
24,6,Visegrad Hydroelectric Power Plant Bosnia and Herzegovina,43.7603,19.2891
25,2,Morpule,-22.5223,27.0491
25,2,Sua Pan Soda Ash,-21.1667,27.5167
26,6,14 de Julho,-29.0648,-51.6749
26,8,3M Itapetininga,-23.5927,-48.0901
26,8,3M Sumaré,-22.8152,-47.1781
26,8,AJ Rorato,-23.9277,-52.4869
26,8,ALLIANZ PARQUE,-23.5218,-46.6691
26,8,AMBEV - João Pessoa,-7.111,-34.8536
26,8,ANHANGUERA EDUCACIONAL SA - CAMPO GRANDE,-20.4633,-54.5918
26,1,AREVALE,-22.8877,-45.3275
26,6,ARS,-13.0992,-54.8189
26,1,AVG I-II,-19.4632,-44.2871
26,8,Abatedouro São Salvador,-16.0044,-49.7867
26,6,Abranjo I,-30.7944,-52.6272
26,6,Abrasa,-26.7712,-52.1902
26,8,Abunã,-9.6868,-65.3633
26,8,Adria,-21.251,-48.3125
26,8,Adriana Agrícola,-16.9399,-53.5185
26,8,Aeroporto Internacional Eduardo Gomes,-3.0293,-60.0239
26,8,Aeroporto Internacional Pinto Martins - Terminal de Passageiros (TPS-1),-3.7737,-38.5321
26,8,Aeroporto Internacional Salgado Filho,-30.029,-51.2205
26,8,Aeroporto Internacional Tancredo Neves,-19.6371,-43.9625
26,8,Aeroporto Internacional de Brasília,-15.8627,-47.9072
26,8,Aeroporto Internacional de Congonhas - São Paulo,-23.6234,-46.6464
26,8,Aeroporto Internacional de Rio Branco,-9.8627,-67.8905
26,8,Aeroporto Internacional de Salvador,-12.9041,-38.3153
26,8,Aeroporto Internacional de São Paulo/Guarulhos-Central Elétrica de Emergência CEE,-23.4293,-46.4571
26,8,Aeroporto Internacional de Viracopos - Campinas,-23.0029,-47.1249
26,8,Aeroporto Internacional do Recife,-8.1297,-34.9085
26,6,Agostinho Rodrigues,-20.2617,-43.7981
26,6,Agro Trafo,-11.675,-46.6722
26,1,Agroalcool,-20.6583,-49.8415
26,1,Agropéu,-19.2517,-44.985
26,1,Agrovale,-9.4938,-40.3564
26,6,Agudo,-27.5247,-51.5067
26,8,Agudos Ambev,-22.465,-48.9785
26,6,Aguti,-27.3156,-49.0858
26,4,Ahlstrom,-23.082,-46.9415
26,6,Aimorés,-19.4983,-41.0236
26,8,Ala Polo,-23.6461,-46.6386
26,6,Albano Machado,-27.4967,-52.8036
26,17,Albatroz,-6.5475,-34.968
26,1,Albertina,-21.0335,-47.9605
26,8,Albrás,-1.502,-48.6165
26,8,Alcoa Beneficiamento,-2.506,-56.1625
26,8,Alcoa Porto,-2.172,-56.1635
26,1,Alcomira,-21.1971,-51.2083
26,1,Alcon,-18.4533,-39.9358
26,8,Alcon Laboratórios do Brasil,-23.5435,-46.6266
26,1,Alcoolvale,-20.0833,-51.2895
26,1,Alcídia,-22.3457,-52.5145
26,6,Alecrim,-24.0814,-47.5067
26,6,Alegre,-20.7672,-41.5306
26,17,Alegria I,-5.0944,-36.3629
26,17,Alegria II,-5.1243,-36.3833
26,17,Alhandra,-7.2731,-34.9344
26,7,Almirante Álvaro Alberto - Unidade I (Antiga Angra I),-23.0087,-44.4574
26,7,Almirante Álvaro Alberto - Unidade II (Antiga Angra II),-23.0072,-44.4588
26,6,Alta Floresta,-11.9319,-62.0425
26,1,Alta Mogiana,-20.4819,-47.8662
26,8,Altero Design,-29.6341,-50.9975
26,8,Alterosa,-19.8563,-44.5989
26,6,Alto Benedito Novo,-26.7819,-49.3972
26,6,Alto Benedito Novo I,-26.7667,-49.4333
26,6,Alto Brejaúba,-18.9011,-42.446
26,6,Alto Fêmeas I,-12.45,-45.2
26,6,Alto Irani,-27.0094,-52.4303
26,6,Alto Jatapu,0.9,-59.3333
26,6,Alto Paraguai (Pedro Pedrossian),-14.5069,-56.4025
26,6,Alto Sucuriú,-19.245,-52.8994
26,8,Altos,-5.0321,-42.4358
26,2,Alumar,-2.7028,-44.3415
26,2,Alunorte,-1.5374,-48.723
26,8,Alvarães,-3.2293,-64.7739
26,1,Alvorada,-21.3049,-46.8541
26,6,Amador Aguiar I (Antiga Capim Branco I),-18.7903,-48.1472
26,6,Amador Aguiar II (Antiga Capim Branco II),-18.6597,-48.4353
26,1,Amandina,-22.4341,-53.5685
26,8,Amapá Garden Shopping,0.0124,-51.072
26,8,Amaturá,-3.3668,-68.1866
26,15,Ambient,-21.1008,-47.8035
26,6,Americana,-22.699,-47.2842
26,17,Ametista,-14.172,-42.7002
26,17,Amparo,-26.6183,-51.5646
26,6,Anagé,-14.6286,-41.1889
26,4,Anamã,-3.5514,-61.4128
26,6,Angelina (Antiga Portobello - Corredeira do Encano),-27.4547,-48.9828
26,17,Angical,-14.3461,-42.6137
26,1,Angélica,-22.1522,-53.7618
26,6,Anhanguera,-20.4667,-47.8667
26,6,Anna Maria,-21.4858,-43.4539
26,4,Anori,-3.7068,-61.6518
26,6,Antunes,-27.6497,-51.195
26,6,Antônio Brennand (Antiga  Alto Jauru),-15.0472,-58.7517
26,6,Antônio Dias,-19.6047,-42.8583
26,6,Antônio Viel,-27.2714,-51.5481
26,8,Aparecida Parte I,-3.1257,-60.0233
26,8,Aparecida Parte II,-3.1257,-60.0233
26,8,Aparecida Parte III,-3.1257,-60.0281
26,8,Apiacás,-9.5527,-57.3722
26,6,Apiaí,-24.4789,-49.0636
26,13,Apodi,-5.06,-37.755
26,6,Apolônio Sales (Antiga Moxotó),-9.3575,-38.2083
26,6,Aporé,-18.6805,-52.5842
26,8,Apuí,-7.1985,-59.8775
26,6,Aquarius,-17.6167,-54.9167
26,17,Aquibatã,-26.5848,-51.7532
26,8,Aracati,-4.5491,-37.7605
26,1,Aracruz,-19.843,-40.0747
26,8,Araguaia Shopping,-16.639,-49.2653
26,1,Araguassu,-10.874,-51.6235
26,1,Aralco,-20.9045,-50.4015
26,8,Araras DPA,-22.3661,-47.3713
26,8,Araras Nescafé,-22.3622,-47.3715
26,17,Aratuá I,-5.0919,-36.3377
26,4,Araucária,-25.5843,-49.3464
26,6,Areal,-22.2333,-43.0833
26,6,Areia,-11.6986,-46.7361
26,17,Areia Branca,-4.9686,-36.9009
26,8,Arembepe (Antiga Camaçari Pólo de Apoio I),-12.6863,-38.2925
26,17,Arizona 1,-5.3042,-35.382
26,6,Arroio Trinta,-26.88,-51.2797
26,15,Arrudas,-19.8953,-43.8783
26,1,Artivinco (Antiga Rio Pardo),-21.4998,-47.3568
26,6,Arturo Andreoli (Antiga Júlio de Mesquita Filho),-25.5681,-53.0742
26,6,Arvoredo,-27.0667,-52.4833
26,17,Asa Branca I,-5.2323,-35.8266
26,17,Asa Branca II,-5.2286,-35.8808
26,17,Asa Branca III,-5.2551,-35.8436
26,17,Asa Branca IV,-5.3291,-35.9916
26,17,Asa Branca V,-5.3828,-36.0088
26,17,Asa Branca VI,-5.3596,-35.9987
26,17,Asa Branca VII,-5.2529,-35.943
26,17,Asa Branca VIII,-5.2812,-35.9804
26,4,Asfor,-3.7817,-38.5182
26,15,Asja BH,-19.813,-43.9465
26,8,Aspebras Bahia,-12.7641,-38.3913
26,8,Assembleia Paraense,-1.413,-48.4363
26,8,Assis Brasil - TECG,-10.9428,-69.5747
26,6,Assis Chateaubriand(Antiga Salto Mimoso),-20.6753,-53.5676
26,8,Associação Pró-Ensino Novo Hanburgo,-29.6743,-51.1211
26,13,Assu V,-5.555,-37.015
26,17,Assuruá II,-11.1573,-42.6791
26,17,Assuruá V,-11.1967,-42.6949
26,17,Assuruá VII,-11.1674,-42.7
26,8,Atacadão Ipiranga,-23.5773,-46.5918
26,8,Atacadão Jacui,-23.492,-46.4467
26,8,Atacadão Matriz,-23.5252,-46.5762
26,8,Atacadão SA Brasilia,-15.7318,-47.8961
26,8,Atacadão SA Cuiaba Porto,-15.6109,-56.0933
26,8,Atacadão SA Taguatinga,-15.7942,-47.8822
26,4,Atalaia,-10.907,-37.0625
26,8,Atalaia do Norte,-4.3316,-70.1461
26,17,Atlântica,-6.5474,-34.9737
26,17,Atlântica I,-30.3188,-50.3161
26,17,Atlântica II,-30.3265,-50.3234
26,17,Atlântica IV,-30.2919,-50.335
26,17,Atlântica V,-30.2915,-50.305
26,1,Atos,-9.8679,-57.8132
26,17,Aura Mangueira XI,-33.0519,-52.8587
26,17,Aura Mangueira XII,-33.1318,-52.9938
26,17,Aura Mangueira XIII,-33.079,-52.8855
26,17,Aura Mangueira XV,-33.142,-52.9626
26,17,Aura Mirim IV,-33.0511,-52.9371
26,4,Aureliano Chaves (Antiga Ibirité),-19.9866,-44.0889
26,8,Autazes,-3.5755,-59.1233
26,6,Autódromo,-28.8258,-51.8414
26,6,Avelar,-22.2939,-43.4181
26,2,Açominas,-20.5355,-43.6986
26,8,BASF ANC,-23.6832,-46.5575
26,8,BASF DEM,-23.7455,-46.5528
26,8,BASF IND,-23.1388,-47.2372
26,8,BASF JAC,-23.2702,-45.9644
26,8,BAXTER,-23.6768,-46.6822
26,1,BEN Bioenergia,-9.9125,-36.3245
26,8,BENVETEX TEXTIL,-26.8842,-49.2004
26,8,BIGFER FIXADORES,-29.2243,-51.3489
26,8,BIGFER MATRIZ,-29.2271,-51.3486
26,13,BJL ENEL,-12.597,-44.107
26,8,BOULEVARD BELÉM,-1.4518,-48.495
26,8,BSA SU,-15.7924,-47.8797
26,8,BT LATAM - HORTOLANDIA,-22.8967,-47.2036
26,8,Bagre,-1.8932,-50.2016
26,6,Baguari,-19.022,-42.123
26,8,Bahia I - Camaçari,-12.6616,-38.3255
26,1,Bahia Pulp (Antiga Bacell),-12.6389,-38.3275
26,17,Baixa do Feijão I,-5.3698,-36.0317
26,17,Baixa do Feijão II,-5.3022,-36.0381
26,17,Baixa do Feijão III,-5.3449,-36.04
26,17,Baixa do Feijão IV,-5.322,-36.0606
26,4,Baixada Fluminense,-22.7183,-43.6335
26,6,Balbina,-1.9158,-59.4733
26,1,Baldin,-21.9833,-47.4404
26,1,Bambuí,-20.0826,-46.0278
26,8,Banco Santander Brasil,-23.5435,-46.6265
26,17,Banda de Couro,-9.8288,-41.0624
26,6,Bandeirante,-26.7994,-53.6667
26,15,Bandeirantes,-23.4158,-46.7464
26,4,Bangu Shopping 2,-22.8749,-43.4578
26,17,Baraúnas I,-9.8868,-41.1203
26,17,Baraúnas II,-9.8412,-41.1037
26,4,Barbosa Lima Sobrinho (Antiga Eletrobolt),-22.7155,-43.6378
26,8,Barcelos,-0.963,-62.9241
26,6,Bariri (Álvaro de Souza Lima),-22.1533,-48.7525
26,6,Barra,-25.7667,-52.0833
26,1,Barra Bioenergia,-22.474,-48.5225
26,6,Barra Bonita,-22.5194,-48.5344
26,6,Barra Escondida,-26.9039,-53.0297
26,6,Barra Grande,-27.7769,-51.1933
26,1,Barra Grande de Lençóis,-22.6213,-48.7473
26,6,Barra da Paciência,-18.95,-42.6
26,6,Barra do Braúna,-21.45,-42.4
26,6,Barra do Rio Chapéu,-28.0678,-49.1508
26,6,Barra dos Coqueiros,-18.7233,-51.0031
26,1,Barralcool,-15.0282,-57.2014
26,6,Barulho,-21.9983,-44.4039
26,8,Basf Guaratinguetá,-22.7766,-45.1595
26,8,Basílica Nossa Senhora da Conceição Aparecida,-22.843,-45.2205
26,6,Batalha (Antiga Paulista),-17.35,-47.4833
26,1,Batatais,-20.7537,-47.5664
26,6,Batista,-23.8397,-47.6531
26,8,Baturité,-4.3246,-38.8755
26,4,Bayer,-23.544,-46.6265
26,1,Bazan,-21.0061,-47.9836
26,1,Baía Formosa,-6.4123,-35.0462
26,8,Bebidas Ipiranga,-21.1426,-47.8215
26,6,Bela União (Trincheira),-27.7808,-54.3734
26,1,Bela Vista,-20.9362,-48.0708
26,6,Belmonte,-26.8333,-53.6667
26,8,Belo Jardim,-10.0055,-67.7205
26,6,Belo Monte,-3.1264,-51.775
26,1,Bem Brasil,-19.5641,-46.8975
26,6,Benjamim Mário Baptista (Antiga Nova Sinceridade),-20.2139,-41.9889
26,8,Benjamin Constant,-4.3521,-70.0258
26,1,Benálcool,-21.2276,-50.7655
26,8,Bergamais,-23.4735,-46.6361
26,8,Bergamini,-23.5435,-46.6266
26,1,Berneck,-25.5382,-49.3615
26,6,Bertussi,-28.8669,-50.939
26,4,Biancogrês,-20.125,-40.2985
26,8,Big Umuarama,-23.6758,-53.4052
26,8,Bimbo,-29.9405,-50.9825
26,8,Bimbo do Brasil,-23.5435,-46.6266
26,1,Bio Alvorada,-18.4371,-49.1806
26,1,Bio Coopcana,-23.2655,-52.4761
26,1,Bio Fuel,0.9637,-59.9464
26,1,Bioenergética Aroeira,-18.7515,-48.6035
26,1,Bioenergética Vale do Paracatu - BEVAP,-17.0582,-46.1741
26,1,Bioflex Caeté,-9.773,-36.0759
26,1,Biolins,-21.6724,-49.7711
26,1,Biopav II,-21.2097,-50.1895
26,15,Biotérmica Recreio,-30.1468,-52.0165
26,4,Blanver Cogeração,-23.5316,-46.9603
26,8,Blue Tree Park Angra dos Reis,-23.003,-44.3085
26,6,Boa Esperança (Antiga Castelo Branco),-6.752,-43.5641
26,6,Boa Fé,-28.7527,-51.8436
26,6,Boa Sorte,-11.8803,-46.7717
26,1,Boa Vista,-18.5423,-50.4335
26,6,Boa Vista II,-24.9229,-51.3963
26,8,Boa Vista do Ramos,-2.9649,-57.5786
26,8,Boca do Acre,-8.7641,-67.3094
26,17,Boca do Córrego,-3.0984,-39.6663
26,6,Bocaiúva,-12.5303,-57.8808
26,17,Bom Jardim,-28.4403,-49.5703
26,1,Bom Jesus,-8.2781,-35.0286
26,1,Bom Retiro,-22.8693,-47.444
26,1,Bom Sucesso,-18.0145,-49.7824
26,8,Bompreço Fortaleza,-3.7132,-38.5336
26,8,Bompreço Maceió,-9.6618,-35.7258
26,8,Bompreço Passo Fundo,-28.2588,-52.3972
26,6,Bonfante,-22.0089,-43.2653
26,17,Bons Ventos,-4.4472,-37.7596
26,6,Boqueirão,-7.4878,-36.1386
26,17,Borgo,-14.5084,-42.5867
26,1,Bortolo Carolo,-20.9967,-48.0154
26,4,Brahma,-22.9192,-43.4408
26,1,Branco Peres,-21.4838,-51.0189
26,2,Brasil Verde,-19.749,-44.8875
26,8,Brasilgráfica,-23.507,-46.8665
26,4,Braskem PVC-AL,-9.6746,-35.9565
26,8,Brasília,-15.7968,-47.9403
26,6,Braço,-22.7833,-44.2333
26,6,Braço Norte,-9.8322,-55.0153
26,6,Braço Norte II,-9.7833,-54.9833
26,6,Braço Norte III,-9.6667,-54.9667
26,6,Braço Norte IV,-9.6833,-54.9667
26,6,Braço Seco,-21.6078,-45.4239
26,6,Brecha,-20.5458,-42.9625
26,6,Brejauba,-18.9114,-42.44
26,1,Brotas,-22.3465,-48.0965
26,8,Brumado,-14.196,-41.6572
26,6,Bruno Heidrich,-27.0986,-50.13
26,8,Budai,-23.5235,-46.893
26,8,Buettner,-27.094,-48.908
26,6,Bugres,-29.3464,-50.7016
26,6,Buricá,-27.925,-54.0792
26,17,Buriti,-2.8853,-39.9839
26,6,Buritirana,-11.9272,-46.2972
26,8,Byk,-22.702,-46.9765
26,1,CAAL,-29.7825,-55.7695
26,8,CAE South,-23.4628,-46.5333
26,8,CAMPINAS - 1,-22.9111,-47.0964
26,8,CARBOFER,-20.1602,-44.9091
26,8,CARGILL AGRICOLA SA CNPJ: 60.498.706/0130-54,-18.3519,-49.2197
26,8,CAS-BC,-22.9044,-47.0625
26,8,CATERPILLAR 2500KVA 3412 UNIDADE CAMPO DO MEIO,-21.8438,-46.4923
26,1,CATIVA I,-27.0016,-49.3639
26,8,CATUAÍ MARINGÁ,-23.4163,-51.9611
26,8,CD Cordeirópolis,-22.4888,-47.3903
26,8,CECOL,-22.478,-47.4472
26,1,CEM (Antiga Camen),-17.9237,-49.1895
26,4,CENPES - Petrobrás,-22.899,-43.1985
26,8,CERÂMICA PORTO FERREIRA,-21.8499,-47.4697
26,8,CEUMA - ASSOCIAÇÃO DE ENSINO SUPERIOR,-2.5268,-44.2972
26,8,CIF Mineração,-21.7551,-42.5483
26,4,CINAL/TRIKEM,-9.706,-35.8855
26,8,CINDACTA IV,-3.0574,-60.077
26,1,CMPC (Antiga Aracruz Unidade Guaíba),-30.1293,-51.2975
26,8,CNH Alvorada do Oeste,-11.335,-62.2767
26,8,CNH Buritis,-10.2125,-63.8294
26,8,CNH Campo Novo,-10.5681,-63.6072
26,8,CNH Costa Marques,-12.4342,-64.2225
26,8,CNH Cujubim,-9.3633,-62.5856
26,8,CNH Distrito de Triunfo,-9.2851,-63.1306
26,8,CNH Machadinho,-9.4164,-61.9947
26,8,CNH Nova Califórnia,-9.7378,-66.6061
26,8,CNH São Francisco,-12.0406,-63.5722
26,8,CNH União Bandeirantes,-9.7008,-64.5192
26,8,CNH Vale do Anari,-9.8639,-62.1658
26,8,CNH Vila Extrema,-9.7719,-66.3425
26,8,CNH Vista Alegre,-9.6469,-65.725
26,8,CNT,-14.3432,-48.4308
26,8,COCAM CIA DE CAFÉ SOLÚVEL E DERIVADOS,-21.1268,-48.9628
26,8,CONCESSIONARIA AEROPORTO RIO DE JANEIRO SA,-22.8061,-43.2582
26,8,CONDOMINIO EDIFICIO SHOPPING PATIO MACEIO,-9.5546,-35.7366
26,8,CONDOMINIO SAO CONRADO FASHION MALL,-22.9924,-43.25
26,8,CONDOMINIO VOLUNTARIO VIA VERDE SHOPPING CENTER,-9.9818,-67.8383
26,8,COSIMAT,-19.5488,-44.0664
26,1,CRV,-15.3429,-49.72
26,8,CST,-20.125,-40.2985
26,8,CTA-MR,-25.4233,-49.2803
26,4,CTE Fibra,-22.696,-47.3422
26,15,CTR Juiz de Fora,-21.6187,-43.4217
26,6,Caa-Yari,-27.4292,-54.1206
26,4,Caapiranga,-3.3255,-61.2016
26,1,Caarapó,-22.6105,-54.6848
26,6,Cabeça de Boi,-10.3542,-56.985
26,6,Cabixi,-12.9567,-60.1247
26,6,Cabixi II,-13.0194,-60.1128
26,8,Cabo de Santo Agostinho,-8.283,-35.0255
26,6,Caboclo,-20.495,-43.4828
26,8,Cabot Mauá,-23.6367,-46.4621
26,1,Cabrera,-19.3074,-50.7083
26,6,Cachoeira,-12.4922,-60.4717
26,6,Cachoeira Caldeirão,0.8533,-51.2917
26,6,Cachoeira Dourada,-18.5025,-49.4931
26,6,Cachoeira Paulista,-22.7486,-44.9056
26,6,Cachoeira Poço Preto I,-24.0381,-49.4617
26,6,Cachoeira Poço Preto II,-24.0479,-49.4578
26,6,Cachoeira da Lixa,-17.0742,-40.0683
26,6,Cachoeira do Brumado,-21.8528,-43.8886
26,6,Cachoeira do Lavrinha (Antiga São Patrício),-15.5161,-49.4847
26,6,Cachoeirinha,-22.57,-46.41
26,6,Cachoeirão,-19.4367,-41.6142
26,17,Cacimbas 1,-3.2532,-39.2809
26,6,Caconde,-21.5767,-46.6242
26,8,Cadam,0.3843,-53.954
26,17,Caetité,-14.1272,-42.5471
26,17,Caetité 1,-14.1632,-42.4845
26,17,Caetité 2,-14.185,-42.503
26,17,Caetité 3,-14.2194,-42.507
26,17,Caetité A,-14.1415,-42.4783
26,17,Caetité B,-14.1146,-42.4749
26,17,Caetité C,-14.1082,-42.4746
26,17,Caititu,-14.4528,-42.641
26,6,Caixão,-20.0569,-44.6089
26,6,Caju,-26.9517,-52.4594
26,17,Cajucoco,-2.9159,-39.9544
26,6,Cajuru,-20.2394,-44.7539
26,17,Calango 1,-6.0339,-36.544
26,17,Calango 2,-6.0166,-36.4835
26,17,Calango 3,-6.0489,-36.546
26,17,Calango 4,-6.0236,-36.472
26,17,Calango 5,-6.0303,-36.488
26,17,Calango 6,-6.0132,-36.4499
26,6,Calheiros,-20.9847,-41.71
26,8,Calçados Azaléia,-15.245,-40.2385
26,8,Calçoene,2.502,-50.9395
26,6,Camargos,-21.3256,-44.6161
26,4,Camaçari,-12.694,-38.3145
26,6,Cambará,-15.9697,-55.0883
26,8,Camera Ijui,-28.4317,-53.878
26,8,Camera Santa Rosa,-27.8548,-54.4707
26,8,Camera São Luiz Gonzaga,-28.4007,-54.9626
26,1,Camil Alimentos - Camaquã,-30.8189,-51.7039
26,17,Caminho da Praia,-8.3344,-35.0053
26,8,Campina Grande,-7.2307,-35.89
26,17,Campo Belo,-26.6123,-51.7401
26,1,Campo Florido,-19.8091,-48.7255
26,1,Campo Lindo,-10.4681,-37.1815
26,8,Campo Maior,-4.8424,-42.1836
26,6,Campo Real,-25.4175,-51.7514
26,17,Campo dos Ventos I,-5.345,-35.9428
26,17,Campo dos Ventos II,-5.3201,-35.9322
26,17,Campo dos Ventos III,-5.3356,-35.9669
26,17,Campo dos Ventos V,-5.2931,-35.9479
26,4,Campos (Antiga Roberto Silveira),-21.7155,-41.3285
26,6,Campos Novos,-27.6017,-51.3169
26,17,Camurim,-6.5576,-34.9721
26,6,Cana Brava,-13.3992,-48.1425
26,1,Canabrava,-21.6491,-41.3957
26,6,Canastra,-29.3934,-50.7465
26,8,Canatiba Tupis,-22.7731,-47.366
26,1,Canaã,-22.9258,-47.5567
26,17,Candiba,-14.1831,-42.6227
26,2,Candiota III,-31.5458,-53.6566
26,6,Canoa Quebrada,-12.7833,-56.0
26,6,Canoas I,-22.9414,-50.5169
26,6,Canoas II,-22.9361,-50.2497
26,6,Cantú 2,-24.7458,-52.4681
26,6,Capigui,-28.352,-52.204
26,6,Capivara (Escola de Engenharia Mackenzie),-22.658,-51.3598
26,6,Capivari,-28.1156,-48.966
26,1,Capricho,-9.3335,-36.1501
26,8,Capuava,-23.66,-46.5285
26,6,Capão Preto,-21.85,-47.7833
26,17,Capão do Inglês,-30.9163,-55.7084
26,8,Caracaraí,1.8265,-61.1136
26,1,Caramuru Sorriso,-12.7418,-55.6773
26,6,Carandaí,-21.0556,-44.2094
26,6,Carangola,-20.7019,-42.0394
26,8,Carauari,-5.1149,-67.3281
26,17,Caravela,-6.556,-34.969
26,17,Carcará I,-4.9438,-36.9918
26,17,Carcará II,-4.9457,-37.0036
26,8,Careiro da Várzea,-3.1938,-59.7647
26,1,Cargil Três Lagoas,-20.7978,-51.6318
26,1,Cargill Uberlândia,-18.8483,-48.2765
26,4,Carioca Shopping,-22.899,-43.1985
26,6,Carlos Gonzatto,-27.6206,-53.8047
26,8,Carrefour - RPN,-21.1593,-47.8055
26,8,Carrefour - SON,-23.4861,-47.4719
26,8,Carrefour BGU,-23.4643,-46.5122
26,8,Carrefour CPS,-22.8496,-47.0178
26,8,Carrefour SAV,-23.9632,-46.36
26,8,Carrefour SPT,-23.5188,-46.5914
26,1,Casa de Força,-20.2304,-50.3345
26,4,Casa de Geradores de Energia Elétrica F-242,-23.0951,-45.822
26,6,Casca II,-15.3636,-55.4453
26,6,Casca III,-15.3576,-55.4553
26,17,Cascata,-26.5889,-51.7427
26,6,Cascata Chupinguaia,-12.7139,-60.8717
26,6,Cascata das Andorinhas,-27.35,-52.7667
26,6,Castaman I (Antiga Enganado),-13.0839,-60.6222
26,6,Castaman III,-13.1517,-60.6567
26,8,Castelo Branco Office Park,-23.5066,-46.8666
26,6,Castro Alves,-29.0083,-51.3792
26,1,Catanduva,-21.1254,-48.8248
26,1,Catanduva (Antiga Cerradinho),-21.0966,-48.9335
26,6,Catas Altas I,-24.5972,-49.135
26,8,Caterpillar,-22.7033,-47.6246
26,8,Catuai Shopping Center Londrina,-29.1742,-51.2178
26,8,Caucaia,-3.7327,-38.6434
26,6,Caveiras,-27.8156,-50.4803
26,6,Cavernoso,-25.4936,-52.2128
26,6,Cavernoso II,-25.4933,-52.225
26,6,Cazuza Ferreira,-29.0167,-50.7167
26,6,Caçador,-28.7055,-51.8506
26,6,Caçu,-18.5294,-51.15
26,1,Caçú I,-18.6013,-51.1913
26,8,Ceasa-PE,-8.0668,-34.9225
26,8,Cebrace Barra Velha,-26.6347,-48.7047
26,8,Cebrace Caçapava,-23.1314,-45.7531
26,8,Cebrace Jacarei,-23.2847,-45.9417
26,8,Cedasa,-22.453,-47.5205
26,8,Celpav II,-21.5487,-47.7725
26,4,Celpav IV,-23.2949,-45.981
26,4,Celso Furtado (Antiga Termobahia Fase I),-12.7038,-38.5669
26,6,Celso Ramos,-26.7578,-52.2578
26,1,Celulose Irani,-26.9416,-51.7466
26,8,Cencosud - GBarbosa - 153,-12.9159,-38.4431
26,8,Cencosud - GBarbosa - 31,-12.9792,-38.4697
26,8,Cencosud - GBarbosa - 35,-12.9914,-38.4486
26,8,Cencosud - GBarbosa - 6,-10.9414,-37.0581
26,8,Cencosud - GBarbosa - 81,-9.6312,-35.6999
26,8,Cencosud - GBarbosa - 84,-9.6489,-35.7058
26,8,Cencosud - M. Rodrigues - 10,-12.9006,-38.3326
26,8,Cencosud - M. Rodrigues - 607,-9.4253,-40.5055
26,8,Cencosud - M. Rodrigues - 806,-10.9386,-37.0828
26,1,Cenibra,-19.216,-42.4745
26,8,Center Shopping Uberlândia,-18.91,-48.2594
26,1,Central Energética Ribeirão Preto (Antiga Galo Bravo),-21.1112,-47.8166
26,6,Central GH Engenheiro Bernardo Figueiredo,-22.7392,-46.9075
26,6,Central I,-26.9197,-50.4114
26,13,Central Mineirão,-19.8656,-43.9711
26,1,Central Olho D Água,-7.4176,-35.2441
26,1,Central Termelétrica de Geração (Antiga Forjasul),-30.54,-52.5125
26,4,Central de Cogeração Shopping Caxias,-22.7818,-43.3025
26,8,Centro Administrativo Farroupilha,-30.029,-51.2205
26,1,Centro Oeste Iguatemi,-23.1627,-54.3845
26,1,Cepasa,-8.1096,-35.0039
26,1,Cerradão,-19.9183,-49.1458
26,17,Cerro Chato I (Antiga Coxilha Negra V),-30.8407,-55.7251
26,17,Cerro Chato II (Antiga Coxilha Negra VI),-30.8485,-55.6856
26,17,Cerro Chato III (Antiga Coxilha Negra VII),-30.8018,-55.7142
26,17,Cerro Chato IV,-30.8327,-55.7558
26,17,Cerro Chato V,-30.7957,-55.7556
26,17,Cerro Chato VI,-30.783,-55.6906
26,17,Cerro dos Trindade,-30.8512,-55.7527
26,8,Cervejaria Petrópolis,-22.31,-42.8644
26,8,Cervejaria Petrópolis - Alagoinhas,-12.0843,-38.3436
26,8,Cervejatia Petrópolis - Itapissuma,-7.7943,-34.9166
26,8,Cerâmica Urussanga,-28.5308,-49.3094
26,8,Cerâmicos Fortaleza,-22.407,-47.5515
26,6,Cesar Filho,-12.2698,-61.1862
26,4,Cesar Park Business Hotel/Globenergy,-23.459,-46.5235
26,1,Cevasa,-20.7478,-47.4218
26,6,Chaminé,-25.8153,-49.0606
26,1,Chapadão Agroenergia,-21.1994,-50.1965
26,6,Chavantes,-23.1286,-49.7314
26,6,Chibarro,-21.8881,-48.1472
26,8,Chris Cintos,-23.6461,-46.6386
26,8,Chupinguaia,-12.5333,-60.8889
26,17,Chuí 09,-33.6875,-53.381
26,17,Chuí I,-33.6565,-53.3936
26,17,Chuí II,-33.6594,-53.4003
26,17,Chuí IV,-33.6647,-53.4164
26,17,Chuí V,-33.6681,-53.4218
26,8,Cia Minuano,-29.3584,-51.9556
26,8,Cia de Alimentos Ibituruna,-18.7794,-41.9541
26,8,Cidade Nova,-3.0241,-59.9592
26,6,Cidezal,-13.37,-59.0126
26,1,Citrosuco,-21.5947,-48.3636
26,1,Citrovita Catanduva,-21.134,-48.9635
26,1,Clealco Clementina,-21.578,-50.4216
26,1,Clealco Queiroz,-21.8503,-50.2472
26,6,Coaracy Nunes,0.9031,-51.2592
26,6,Cocais Grande,-19.5319,-42.7672
26,1,Cocal,-22.47,-50.7793
26,1,Cocal II,-22.5268,-51.494
26,1,Cocamar Maringá,-23.4303,-51.9774
26,4,Codajás,-3.8366,-62.053
26,1,Codora,-15.2714,-49.158
26,6,Codorna,-20.1517,-43.8842
26,17,Coelhos I,-6.5758,-34.9718
26,17,Coelhos II,-6.5701,-34.9674
26,17,Coelhos III,-6.5566,-34.9664
26,17,Coelhos IV,-6.5814,-34.9747
26,1,Cofercatu,-22.8892,-51.3931
26,8,Cogeracao Diesel - Cargilll de Castro Pr,-24.7758,-49.8856
26,4,Cogeração De Millus Av. Brasil,-22.9192,-43.4408
26,8,Cogeração International Paper - Fases I e II,-22.3563,-46.9605
26,1,Coinbra - Frutesp,-20.9295,-48.5072
26,6,Colino 1,-17.0778,-40.0853
26,6,Colino 2,-17.0725,-40.1047
26,1,Colombo Ariranha,-21.2116,-48.8296
26,1,Colombo Ariranha 2,-21.2118,-48.828
26,1,Colombo Palestina,-20.3107,-49.5898
26,1,Colombo Santa Albertina,-20.0361,-50.6662
26,8,Color Visão do Brasil Indústria Acrílica,-21.2305,-50.5078
26,1,Colorado,-20.2792,-48.1755
26,8,Colorado do Oeste,-13.1149,-60.5186
26,17,Colônia,-3.5422,-38.8784
26,8,Combustol,-23.4864,-46.7439
26,6,Comendador Venâncio,-21.1667,-42.0833
26,1,Comigo,-15.4212,-49.7344
26,8,Companhia Brasileira de Vidros Planos,-7.5084,-34.9747
26,8,Companhia Maranhense de Refrigerantes - Varzea Grande,-15.6103,-56.1544
26,8,Complem,-17.6875,-49.1329
26,8,Component,-23.682,-46.6135
26,1,Comvap,-4.8503,-42.8765
26,8,Condominio Edificio Faria Lima Financial Center,-23.5822,-46.6736
26,8,Condominio de Administraçao do Goiania Shopping,-16.7083,-49.2725
26,8,Condomínio Canoas Shopping Center,-29.914,-51.1745
26,8,Condomínio Civil Pantanal Shopping,-15.592,-56.0875
26,8,Condomínio Edifício Nova São Paulo,-23.6288,-46.7015
26,8,Condomínio Edifícios New York e Los Angeles,-23.6461,-46.6386
26,8,Condomínio Edilício Pátio Belém,-1.4558,-48.5044
26,8,Condomínio SP Market Center,-23.674,-46.688
26,8,Condomínio Shopping Center Lapa,-12.967,-38.5015
26,4,Condomínio World Trade Center,-23.6032,-46.6874
26,8,Condomínio do Castanheira Shopping Center,-1.3624,-48.3628
26,6,Congonhal I,-22.1128,-44.8422
26,1,Conquista de Minas,-20.0167,-47.6159
26,1,Conquista do Pontal,-22.1202,-51.7568
26,1,Conselvan,-9.9266,-59.9203
26,8,Consórcio Condomínio Catarina Fashion Outlet,-23.4166,-47.1528
26,4,Contagem,-19.9432,-44.0061
26,6,Contestado,-26.6733,-51.7169
26,1,Continental,-20.1818,-48.6887
26,1,Coocarol,-23.3652,-52.7003
26,1,Cooper-Rubi,-15.1754,-49.7488
26,8,CooperSul,-31.7595,-52.474
26,1,Cooperfrigo,-21.5208,-49.8611
26,1,Coopernavi,-23.126,-54.1924
26,1,Cooperval,-23.6819,-51.6831
26,8,Copa DOr,-22.899,-43.1985
26,8,Copebrás Catalão,-18.166,-47.9325
26,8,Copesul,-29.939,-51.7085
26,1,Coplasa,-21.0286,-49.9184
26,1,Coprodia,-13.781,-57.8406
26,6,Coqueiral,-27.5158,-49.0781
26,17,Coqueirinho,-14.4199,-42.6287
26,17,Coqueiros,-2.8855,-39.9721
26,1,Coraci,-22.6751,-49.7627
26,8,Corfio,-26.7716,-51.0058
26,1,Corona,-21.4163,-48.2793
26,6,Coronel Araújo,-26.6725,-51.7525
26,17,Corredor do Senandes II,-32.3862,-52.327
26,17,Corredor do Senandes III,-32.4127,-52.3555
26,17,Corredor do Senandes IV,-32.3689,-52.342
26,6,Corrente Grande,-18.95,-42.5167
26,17,Corrupião,-14.2927,-42.5853
26,6,Corumbataí,-22.4833,-47.6
26,6,Corumbá I,-17.9893,-48.531
26,6,Corumbá III,-16.7861,-47.9419
26,6,Corumbá IV,-16.3208,-48.1883
26,1,Coruripe,-9.9783,-36.2156
26,1,Coruripe Energética - Filial Campo Florido,-19.8089,-48.7295
26,1,Coruripe Iturama,-19.7046,-50.3289
26,8,Cory,-21.36,-46.9305
26,2,Cosima,-3.6875,-45.428
26,2,Cosipa II,-23.8608,-46.3623
26,2,Cosipar,-5.365,-49.1085
26,1,Costa Bioenergia,-23.6592,-53.3994
26,17,Costa Branca,-5.4215,-35.8526
26,1,Costa Pinto,-22.6357,-47.6749
26,6,Costa Rica,-18.5667,-53.1333
26,6,Cotiporã,-28.9666,-51.75
26,6,Cotovelo do Jacuí,-28.6714,-52.7086
26,17,Coxilha Seca,-30.888,-55.7352
26,8,Crato,-7.2324,-39.478
26,8,Cristalina Alimentos,-16.6947,-47.5085
26,6,Cristalino,-24.5633,-51.5533
26,6,Cristina,-22.1578,-45.2806
26,6,Criúva,-28.9808,-50.7825
26,8,Cromex - BA,-12.8236,-38.4245
26,17,Cruz Alta,-26.5994,-51.7255
26,8,Cruzeiro do Sul,-7.6116,-72.665
26,8,Cruzeiro do Sul  CEA,-7.6308,-72.67
26,1,Cucaú,-8.6369,-35.2617
26,4,Cuiabá (Antga Mário Covas),-15.596,-56.097
26,6,Culuene,-14.6333,-53.9333
26,6,Curemas,-7.0167,-37.9667
26,6,Curuá-Una,-2.8117,-54.2989
26,6,Córrego Santa Cruz,-12.6456,-58.3189
26,6,D,-20.1169,-43.8681
26,8,DHB Componentes Automotivos (Unidade 1),-30.0914,-51.1556
26,8,DHB Componentes Automotivos (Unidade 2),-30.0914,-51.1556
26,8,DTCEA-MN,-3.1423,-59.9705
26,1,DVPA,-17.1171,-46.6541
26,6,Da Fazenda,-10.3303,-56.9814
26,6,Da Ilha,-28.8833,-51.45
26,1,Da Mata,-21.3255,-50.9456
26,1,Da Pedra,-21.1706,-47.6205
26,17,Da Prata,-13.9643,-42.6389
26,1,Dacal,-21.9106,-50.856
26,1,Dacalda,-23.1569,-50.0936
26,8,Daia,-16.398,-48.9344
26,8,Dakota Calçados,-10.7343,-37.8016
26,6,Dalapria,-26.7961,-52.1367
26,6,Dalba,-25.2817,-51.877
26,17,Damascena,-11.8567,-41.4742
26,6,Dardanelos,-10.1633,-59.4642
26,1,Dasa,-17.8335,-40.1786
26,1,Decasa,-22.7623,-50.1025
26,1,Della Coletta,-22.0536,-48.7021
26,1,Delta,-19.9716,-47.7589
26,17,Delta do Parnaíba,-2.8318,-41.7136
26,6,Derivação do Rio Jordão,-25.7589,-52.0869
26,1,Destil,-21.2515,-49.1283
26,1,Destilaria Guaricanga,-22.0541,-49.3107
26,1,Destilaria Malosso,-21.6237,-48.821
26,1,Destilaria Melhoramentos,-23.5612,-52.4182
26,1,Destilaria Paraguaçu,-22.4618,-50.4825
26,1,Destilaria Porto Alegre,-8.8935,-35.6571
26,1,Destilaria de Álcool Ibaiti,-23.6782,-50.4048
26,1,Destivale,-21.114,-50.4543
26,6,Diacal II,-11.7403,-46.7525
26,1,Diamante,-22.3657,-48.6834
26,6,Diamante (Antiga Camargo Corrêa),-14.3464,-56.7947
26,1,Diana,-21.3973,-49.884
26,6,Dianópolis,-11.4661,-46.8189
26,8,Distribuidora Amaral,-20.1197,-44.9212
26,8,Distrito - Bloco Soenergy,2.7617,-60.7247
26,6,Divino,-20.6994,-42.075
26,6,Divisa,-13.3631,-59.1419
26,8,Do Atlântico,-22.9096,-43.7297
26,8,Doce Mineiro,-18.7541,-49.2632
26,6,Doido,-11.7098,-46.7563
26,1,Dois Córregos,-22.3348,-48.3971
26,17,Dois Riachos,-11.8225,-41.4591
26,1,Dois Vizinhos,-25.73,-53.0475
26,6,Dona Francisca,-29.4496,-53.2857
26,6,Dona Maria Piana,-29.2,-51.25
26,8,Dori Alimentos,-22.1743,-49.9736
26,17,Dos Araçás,-14.1296,-42.5597
26,6,Dourados,-20.65,-47.6833
26,17,Dreen Boa Vista,-5.1106,-35.9279
26,17,Dreen Olho D Água,-5.0545,-35.9687
26,17,Dreen São Bento do Norte,-5.053,-35.9784
26,1,Dulcini,-22.6107,-46.9245
26,17,Dunas de Paracuru,-3.4367,-38.9854
26,6,Durandé,-20.0797,-41.7336
26,6,E,-20.1167,-43.8858
26,6,E Nova,-20.1258,-43.9502
26,8,EMPRESA DE MINERAÇÃO ESPERANÇA S A - EMESA,-20.117,-44.2141
26,8,ENGEFLEX BAHIA,-14.8621,-40.83
26,1,ERB Candeias,-12.763,-38.4718
26,4,ESPIGÃO I,-2.5896,-43.1995
26,8,ETA006,-10.2875,-48.2956
26,8,ETERNIT RIO DE JANEIRO,-22.8349,-43.3605
26,1,Ecoluz,-25.3893,-51.4458
26,8,Edifício Odebrecht,-23.5678,-46.6939
26,8,Edifício Rochaverá,-23.544,-46.6265
26,4,Edifício Sky,-23.6461,-46.6386
26,8,Editora o Dia,-22.899,-43.1985
26,1,Egídio,-10.314,-58.3495
26,8,Eirunepé,-6.6566,-69.8666
26,1,Eldorado,-21.8514,-54.0159
26,1,Eldorado Brasil,-20.5957,-51.5975
26,8,Electron (TG),-3.121,-59.9186
26,8,Elekeiroz,-23.2038,-46.8144
26,8,Elektro 4UGs,-22.9927,-47.0976
26,6,Eloy Chaves,-22.7,-47.2833
26,8,Ematex,-19.7756,-44.0626
26,6,Embaúba,-15.9825,-55.0828
26,6,Emborcação,-18.4519,-47.9859
26,17,Embuaca,-3.2147,-39.3288
26,17,Emiliana,-13.91,-42.6242
26,17,Enacel,-4.5099,-37.7607
26,1,Energia Madeiras,-26.1852,-50.3597
26,1,Energy Green,-24.9522,-50.1
26,4,Energy Works Kaiser Pacatuba,-3.98,-38.6105
26,4,EnergyWorks Corn Products Balsa,-25.58,-49.6265
26,4,EnergyWorks Corn Products Mogi,-22.368,-46.9325
26,1,Energética Itajubara,-4.2788,-42.9783
26,1,Energética Santa Helena,-21.9943,-53.4155
26,1,Enervale,-17.0598,-46.1705
26,6,Engenheiro Ernesto Jorge Dreher,-29.1203,-53.3678
26,6,Engenheiro Henrique Kotzian,-29.1306,-53.3156
26,6,Engenheiro José Gelásio da Rocha,-16.7,-54.76
26,6,Engenheiro José Luiz Muller de Godoy Pereira (Antiga Foz do Rio Claro),-19.1178,-50.6456
26,1,Engenho Coradini,-30.9735,-54.6353
26,8,Enguia Pecém,-3.598,-39.0477
26,8,Envira,-7.4368,-70.0203
26,1,Equipav,-21.5208,-49.8611
26,1,Equipav II,-21.5208,-49.8611
26,6,Ernestina,-28.5558,-52.5456
26,6,Ernesto Lavratti Neto,-26.5531,-52.3272
26,8,Esdeva,-21.7602,-43.3408
26,6,Esmeralda,-27.7833,-51.3667
26,6,Esmeril,-20.8333,-47.3
26,6,Esperança,-13.7786,-59.7889
26,6,Espigão,-11.4797,-60.7469
26,8,Espirito Santo,-19.9196,-43.9289
26,6,Espora,-18.6758,-51.8656
26,6,Espraiado,-22.35,-46.225
26,1,Ester,-22.6533,-47.2014
26,1,Estivas,-6.2266,-35.198
26,6,Estreito,-6.5872,-47.4594
26,6,Estreito (Luiz Carlos Barreto de Carvalho),-20.1506,-47.2794
26,17,Estrela,-3.248,-39.2943
26,8,Eternit,-25.2877,-49.2147
26,8,Eternit Simões Filho,-12.7805,-38.3944
26,6,Euclidelândia,-21.9166,-42.2549
26,6,Euclides da Cunha,-21.6031,-46.9492
26,17,Eurus I,-5.3651,-35.8619
26,17,Eurus II,-5.3919,-35.8331
26,17,Eurus III,-5.3973,-35.8749
26,17,Eurus IV,-5.2622,-35.8145
26,17,Eurus VI,-5.2329,-35.9318
26,4,Euzébio Rocha (Antiga Cubatão - CCBS),-23.9293,-46.4239
26,6,Evo,-24.474,-51.7922
26,8,Extra Aracaju,-10.9071,-37.0622
26,8,Extra Caraguatatuba,-23.6163,-45.4036
26,8,Extra São José dos Campos,-23.1755,-45.8775
26,17,Eólica Canoa Quebrada,-4.5358,-37.6953
26,17,Eólica Icaraizinho,-3.0179,-39.6741
26,17,Eólica Paracuru,-3.4315,-38.962
26,17,Eólica Praias de Parajuru,-4.3631,-37.8839
26,17,Eólica de Prainha,-3.8708,-38.3803
26,17,Eólica de Taíba,-3.4953,-38.9339
26,17,Eólica Água Doce,-26.5839,-51.6876
26,17,Eólio - Elétrica de Palmas,-26.5781,-51.7004
26,6,F,-20.1169,-43.8681
26,8,F PIO - LOJAS VISÃO BELÉM,-1.4575,-48.4944
26,8,FBA,-23.3516,-47.8475
26,8,FERROUS RESOURCES DO BRASIL S A,-20.5032,-43.9168
26,8,FIRMENICH 1,-23.5985,-46.908
26,8,FIRMENICH 2,-23.5999,-46.9097
26,8,FNS-PO,-27.595,-48.5486
26,8,FORTALEZA - 2,-3.7489,-38.4539
26,6,Fagundes,-22.2042,-43.0931
26,1,Fany,-22.3051,-51.2115
26,6,Faria Lemos,-20.7942,-42.0
26,8,Faria Lima Square,-23.5839,-46.6728
26,6,Farias,-19.067,-42.8092
26,17,Farol,-5.097,-36.0204
26,6,Faxinal II,-10.1622,-59.4578
26,6,Faxinal dos Guedes,-26.7636,-52.2183
26,6,Faxinal l,-10.1648,-59.4466
26,17,Fazenda Rosário,-30.4469,-50.3888
26,17,Fazenda Rosário 2,-30.4398,-50.4053
26,17,Fazenda Rosário 3,-30.4525,-50.4226
26,6,Fazenda Velha,-17.968,-51.7613
26,17,Faísa I,-3.3218,-39.2671
26,17,Faísa II,-3.3188,-39.2396
26,17,Faísa III,-3.3478,-39.2652
26,17,Faísa IV,-3.3221,-39.2671
26,17,Faísa V,-3.3699,-39.2621
26,8,Feijó,-8.1713,-70.3496
26,8,Feijó  CEA,-8.1639,-70.3539
26,6,Feixos,-22.6975,-46.8512
26,4,Fernando Gasparian (Antiga Nova Piratininga),-23.6949,-46.6691
26,6,Ferradura,-27.5594,-53.5767
26,1,Ferrari,-21.8411,-47.3514
26,6,Ferreira Gomes,0.852,-51.2
26,8,Fibrasa,-7.9077,-34.8933
26,8,Fibrasa Embalagens,-20.1246,-40.2983
26,8,Fibrasa Nordeste,-7.9077,-34.8933
26,1,Fibria - MS (Antiga VCP - MS),-20.751,-51.678
26,2,Figueira,-23.8482,-50.3808
26,1,Figueira Indústria e Comércio,-21.111,-50.2236
26,6,Figueirópolis,-15.3926,-58.6378
26,1,Fischer,-22.5136,-47.3723
26,17,Fleixeiras I,-3.2011,-39.3647
26,6,Flor do Mato,-26.8481,-51.8794
26,6,Flor do Sertão,-26.7877,-53.3942
26,1,Floraplac,-3.1995,-47.5937
26,8,Flores,-3.0707,-60.0144
26,1,Flórida Clean Power do Amapá,0.0408,-51.1351
26,8,Fonte Boa,-2.5202,-66.0291
26,13,Fontes I+II,-9.055,-38.12
26,6,Fontes Nova,-22.7031,-43.8814
26,6,Forquilha,-27.6667,-51.7333
26,4,Fortaleza,-3.6771,-38.8566
26,8,Fortlev Sul,-26.4579,-48.7487
26,6,Foz do Chapecó,-27.1417,-53.0397
26,17,Foz do Rio Choró,-4.1256,-38.1503
26,6,Franca Amaral,-21.0537,-41.72
26,6,Francisco Gross (Antiga Santa Fé),-20.7,-41.5167
26,8,Frango Sertanejo,-20.791,-49.2105
26,6,França,-23.9406,-47.1944
26,6,Frascal,-26.9564,-50.4889
26,6,Frederico João Cerutti SA,-27.5103,-53.4253
26,8,Frigobet,-19.9437,-44.1898
26,1,Fronteira,-20.2996,-49.1965
26,1,Frutal,-20.0803,-48.8124
26,6,Fruteiras,-20.7022,-41.0894
26,8,Fuga Couros,-28.4452,-52.1905
26,8,Fuga Couros - Camargo,-28.6124,-52.2118
26,6,Fumaça,-24.0075,-47.2639
26,6,Fumaça IV,-20.7492,-41.8761
26,6,Fundão,-25.7086,-51.9981
26,6,Fundão I,-25.7086,-51.9981
26,8,Funfarme,-20.8157,-49.37
26,6,Funil,-22.5303,-44.5669
26,1,Furlan,-22.7576,-47.4689
26,1,Furlan Avaré,-23.0459,-49.0334
26,6,Furnas,-20.6471,-46.3286
26,6,Furnas do Segredo,-29.3653,-54.5039
26,6,Furquim,-20.3667,-43.2033
26,8,Fábrica de Ideias Indústria e Comércio,-23.6449,-46.8428
26,6,G,-20.1364,-43.8717
26,8,GB Silvio Teixeira,-10.938,-37.0493
26,4,GE Celma,-22.501,-43.1695
26,8,GNA-RD,-16.7193,-49.2547
26,8,GPA - Loja1370,-23.9582,-46.3703
26,8,GPA - Loja1382,-23.5263,-47.4544
26,8,GRAFITE ITAPECERICA,-20.4685,-45.1161
26,8,GTBX-ST-RJO,-22.9981,-43.6061
26,8,Gabriel Passos,-19.9105,-44.1889
26,6,Galheiros I,-13.3934,-46.3906
26,17,Galpões,-30.8807,-55.6765
26,1,Galvani,-22.7444,-47.1356
26,6,Galópolis,-29.2501,-51.1676
26,1,Gameleira,-10.6505,-51.4092
26,6,Garganta da Jararaca,-13.3906,-57.6242
26,17,Gargaú,-21.5657,-41.0731
26,6,Garibaldi,-27.6217,-50.9882
26,1,Gasa,-20.7659,-51.2492
26,6,Gavião Peixoto,-21.85,-48.5167
26,8,Gedore,-29.7563,-51.1378
26,1,Generalco,-20.5711,-50.3749
26,8,Geolab,-16.4028,-48.9282
26,8,Geraldiscos,-23.4402,-46.9083
26,8,Geramar I (Antiga Tocantinópolis),-3.5274,-44.5174
26,8,Geramar II (Antiga Nova Olinda),-3.5274,-44.5174
26,8,Geração Diesel Irmãos Hort,-27.1107,-48.9364
26,4,Geração Própria de Energia Elétrica - GPEE,-22.9192,-43.4408
26,1,Giasa II,-7.3481,-35.0174
26,6,Gindaí,-8.6361,-35.2036
26,6,Girassol,-13.9969,-45.403
26,8,Global I,-12.6668,-38.5311
26,8,Global II,-12.6668,-38.5311
26,4,Globo,-22.782,-43.3025
26,6,Glória,-21.0358,-42.3317
26,6,Goiandira,-18.2167,-48.25
26,1,Goianésia,-15.2112,-49.0874
26,1,Goiasa,-18.0668,-49.6613
26,8,Gonçalves Salles,-20.913,-46.9819
26,6,Governador Bento Munhoz da Rocha Neto (Foz do Areia),-26.0833,-51.65
26,6,Governador Jayme Canet Júnior - GJC (Antiga Mauá),-24.0622,-50.7064
26,6,Governador José Richa (Salto Caxias),-25.5431,-53.4981
26,4,Governador Leonel Brizola (Antiga TermoRio),-22.7096,-43.2458
26,6,Governador Ney Aminthas de Barros Braga (Segredo),-25.7833,-52.1333
26,6,Governador Pedro Viriato Parigot de Souza (Capivari/Cachoeira),-25.1386,-48.8738
26,8,Grafite Pedra Azul,-16.0013,-41.2878
26,8,Grafite Salto da Divisa,-15.9988,-39.9375
26,8,Granja Brasília,-19.9638,-44.1889
26,8,Granja Viana,-23.6712,-46.951
26,17,Gravatá Fruitrade,-8.2682,-35.5964
26,6,Graça Brennand (Antiga Terra Santa),-14.793,-57.9672
26,8,Greif,-23.544,-46.6265
26,1,Grizzo,-22.2347,-48.4633
26,8,Grupo Geradores Moore,-23.529,-46.7825
26,13,Guaimbe,-21.91,-49.85
26,17,Guajirú,-3.2632,-39.2159
26,17,Guanambi,-14.2017,-42.6183
26,6,Guaporé,-15.1239,-58.9647
26,1,Guarani,-20.8171,-48.8132
26,1,Guarani - Tanabi,-20.5032,-49.5514
26,1,Guarani Tanabi 2,-20.4818,-49.5282
26,8,Guariba,-9.2585,-60.3055
26,6,Guaricana,-25.7148,-48.9745
26,1,Guariroba,-20.1098,-49.7508
26,6,Guarita,-27.767,-53.56
26,6,Guary,-21.4914,-43.4544
26,15,Guatapará,-21.3922,-47.9528
26,1,Guaxuma,-10.0817,-36.2231
26,1,Guaçu,-10.1811,-57.4505
26,1,Guaíra Energética,-20.4184,-48.2114
26,6,Guilman Amorim,-19.7083,-42.96
26,13,Guimarania 1,-18.88,-46.74
26,13,Guimarania 2,-18.88,-46.74
26,17,Guirapá,-14.2189,-42.6414
26,1,Gusa Nordeste,-4.8888,-47.3775
26,4,Gás Anamã,-3.5761,-61.395
26,4,Gás Anori,-8.3377,-67.3088
26,4,Gás Caapiranga,-3.3243,-61.2
26,8,HORIZONTE TÊXTIL,-19.9168,-43.9283
26,8,HOUSTON BIKE,-5.1485,-42.7847
26,6,Henry Borden,-23.8753,-46.4486
26,8,Heringer,-25.5226,-48.5081
26,8,Hermasa,-3.1301,-58.473
26,6,Herval,-29.5,-50.8333
26,8,Hiper Bompreço Rotula,-12.8694,-38.5052
26,8,Hiperideal,-15.592,-56.0875
26,13,Horizonte,-12.705,-43.99
26,4,Hospital Mater Dei - Contorno I,-19.9226,-43.9484
26,8,Hospital Mater Dei - Contorno II,-19.9266,-43.9579
26,8,Hospital Santa Helena,-23.6599,-46.5289
26,8,Hospital São Luiz,-23.6599,-46.5289
26,8,Hospital São Vicente de Paulo,-28.256,-52.403
26,8,Hudtelfa I,-22.774,-47.2865
26,8,Hy-Line,-20.53,-49.3045
26,8,Hypermarcas,-22.9458,-43.3636
26,4,IGW/Service Energy,-23.544,-46.6265
26,8,INPLASUL,-26.2425,-52.6916
26,8,ITALSPEED CAÇAPAVA,-23.1071,-45.6764
26,8,ITALSPEED SABARÁ,-23.6682,-46.6772
26,8,IUNI EDUCACIONAL - UNIC BEIRA RIO,-15.6248,-56.0868
26,1,Iacanga,-21.7932,-49.0027
26,1,Iaco Agrícola,-18.7921,-52.8859
26,6,Ibirama,-27.0372,-49.5708
26,17,Ibirapuitã I,-30.7709,-55.6629
26,6,Ibitinga,-21.7592,-48.9906
26,1,Ibitiúva Bioenergética (Antiga Destilaria Andrade),-21.0013,-48.2761
26,1,Ibéria,-22.1616,-50.4744
26,17,Icaraí,-3.0274,-39.6209
26,17,Icaraí I,-3.0812,-39.5949
26,17,Icaraí II,-3.066,-39.5969
26,17,Igaporã,-13.8606,-42.6573
26,6,Igarapava,-19.9833,-47.75
26,8,Igarapé,-19.948,-44.3335
26,1,Iguatemi (Antiga Santa Terezinha - Iguatemi),-23.3953,-52.0839
26,4,Iguatemi Bahia,-12.896,-38.2905
26,4,Iguatemi Fortaleza,-3.713,-38.5335
26,8,Iguatu,-6.3555,-39.2891
26,6,Ijuizinho,-28.365,-54.3743
26,6,Ilha Comprida,-13.1975,-58.9839
26,17,Ilha Grande,-3.0666,-39.7026
26,6,Ilha Solteira,-20.3822,-51.3636
26,6,Ilha da Luz,-20.8342,-41.1225
26,6,Ilha dos Pombos,-21.85,-42.5833
26,17,Ilhéus,-13.8823,-42.663
26,4,Imcopa,-25.5628,-49.3473
26,6,Indaiazinho  (Antiga Indaiazinho Grande),-19.2008,-52.3542
26,6,Indaiá Grande,-19.2836,-52.3983
26,6,Indiavaí,-15.255,-58.7164
26,1,Indústria Agropalma,-2.9039,-48.7272
26,1,Indústria Palmares,-2.0315,-48.4021
26,8,Indústria de Cal Cruzeiro,-20.4468,-45.5227
26,8,Indústria de Feltros Santa Fé,-23.4205,-46.2233
26,17,Inhambu,-14.3912,-42.5939
26,6,Inhapim,-19.5317,-42.1231
26,8,Inject Campo Bom,-29.6749,-51.0439
26,1,Interlagos,-20.5265,-51.2345
26,6,Inxú,-13.3669,-57.6175
26,1,Iolando Leite,-10.5586,-37.0292
26,4,Ipatinga,-19.464,-42.5275
26,1,Ipaussu Bioenergia,-23.0957,-49.5836
26,1,Ipiranga - Mococa,-21.3441,-47.1555
26,1,Ipiranga Filial Descalvado,-21.8278,-47.741
26,8,Ipixuna,-7.0507,-71.6819
26,1,Ipojuca,-8.3892,-35.0821
26,1,Ipê (Antiga Ceni),-21.1004,-51.4821
26,1,Iracema,-22.5824,-47.5216
26,1,Irani,-26.9293,-51.7905
26,6,Irapé,-16.7381,-42.5747
26,6,Irara,-18.0833,-51.1667
26,6,Isamu Ikeda,-10.7008,-47.7939
26,1,Itaenga,-7.9058,-35.2847
26,8,Itaguassu Agro Industrial,-10.851,-37.1165
26,6,Itaguaçu,-24.6933,-51.5192
26,6,Itaipava,-21.4167,-47.3333
26,6,Itaipu (Parte Brasileira),-25.4269,-54.5931
26,1,Itaiquara,-21.4717,-46.7957
26,15,Itajaí Biogás,-26.983,-48.7111
26,1,Itamarati,-14.7542,-57.1856
26,8,Itaminas,-20.0552,-44.1116
26,1,Itapagipe,-19.8893,-49.6895
26,6,Itapebi,-15.9403,-39.5206
26,8,Itapicuru,-4.451,-43.8765
26,8,Itapiranga,-2.7449,-58.0125
26,17,Itarema I,-2.9225,-39.8407
26,17,Itarema II,-2.9211,-39.8617
26,17,Itarema III,-2.9476,-39.8369
26,17,Itarema IX,-2.9481,-39.9012
26,17,Itarema V,-2.9665,-39.8795
26,6,Itatinga,-23.7519,-46.1394
26,8,Itautinga,-3.0863,-59.9058
26,8,Itaú Centro Empresarial Torre E6,-23.6462,-46.6386
26,8,Itaú Mooca,-23.544,-46.6265
26,8,Itaú Unibanco - Tatuapé,-23.5288,-46.5616
26,6,Itaúba,-29.2607,-53.2359
26,6,Itiquira (Casas de Forças  I e  II),-17.0906,-54.8307
26,6,Ituerê,-21.3,-43.2167
26,1,Ituiutaba,-19.0114,-49.6619
26,6,Itumbiara,-18.4213,-49.116
26,6,Itupararanga,-23.6125,-47.3969
26,6,Itutinga,-21.2913,-44.6224
26,13,Ituverava,-12.594,-44.112
26,6,Itá,-27.2767,-52.3822
26,6,Ivan Botelho I (Antiga Ponte),-21.4,-43.0167
26,6,Ivan Botelho II (Antiga Palestina),-21.35,-42.9667
26,6,Ivan Botelho III (Antiga Triunfo),-21.3,-42.9
26,1,J. L. G.,-21.5285,-48.3655
26,1,J. Pilon,-23.1575,-47.7737
26,1,JB,-8.2239,-35.2718
26,8,JBS Andradina,-20.8793,-51.3493
26,8,JBS GOIÂNIA,-16.6302,-49.3205
26,8,JF Pasqua,-21.323,-46.733
26,8,Jacarepaguá,-22.9558,-43.3783
26,1,Jacarezinho,-23.0895,-49.9321
26,4,Jacareí,-23.301,-45.9565
26,6,Jacaré Pepira,-22.425,-48.02
26,8,Jaci-Paraná,-9.256,-64.3677
26,1,Jaciara,-15.9222,-55.2163
26,6,Jacuí,-29.0735,-53.209
26,6,Jaguara,-20.0231,-47.4344
26,6,Jaguari,-23.195,-46.0278
26,1,Jalles Machado,-15.2071,-48.9758
26,6,Jamari,-9.9537,-63.0917
26,1,Japungu,-6.9869,-35.0143
26,8,Jaraguá,-18.8894,-48.2485
26,4,Jaraqui,-2.9816,-60.0178
26,6,Jararaca,-28.9361,-51.4648
26,8,Jardim Sul Shopping,-23.6277,-46.7264
26,1,Jari Celulose,-0.9196,-52.4258
26,1,Jataí,-17.6918,-51.6155
26,6,Jauru,-15.2356,-58.7278
26,4,Jesus Soares Pereira (Antiga Vale do Açú),-5.3785,-36.8091
26,6,Jirau,-9.2664,-64.6478
26,17,Joana,-13.918,-42.6204
26,6,Jorda Flor,-23.8133,-47.6731
26,8,Jordão  BBF Acre,-9.4342,-71.8839
26,2,Jorge Lacerda I e II,-28.441,-48.9485
26,2,Jorge Lacerda III,-28.441,-48.9485
26,2,Jorge Lacerda IV,-28.441,-48.9485
26,6,José Barasuol (Antiga Linha 3 Leste),-28.2931,-53.8742
26,1,José Bonifácio,-21.082,-49.912
26,6,João Baptista de Lima Figueiredo,-21.5828,-46.7467
26,6,João Borges,-27.7178,-50.6569
26,6,João Camilo Penna (Antiga Cachoeira do Emboque),-20.12,-42.3939
26,6,João Franco,-21.8344,-46.0919
26,1,João Neiva,-19.754,-40.3765
26,6,João de Deus,-19.6397,-45.1092
26,8,Juazeiro do Norte,-7.2094,-39.3061
26,6,Juba I,-14.7483,-58.0739
26,6,Juba II,-14.7561,-58.0231
26,6,Jucazinho,-8.006,-35.6969
26,6,Jucu,-20.3953,-40.5708
26,4,Juiz de Fora,-21.6855,-43.4475
26,6,Juliões,-20.4705,-44.2464
26,1,Junco Novo,-10.5573,-37.0301
26,1,Junqueira,-19.9841,-47.7887
26,6,Jupiá (Eng° Souza Dias),-20.7758,-51.6267
26,17,Juremas,-5.3898,-35.8463
26,8,Juruena,-10.3591,-58.5821
26,6,Jurumirim (Armando Avellanal Laydner),-23.2094,-49.23
26,6,Jurupará,-23.9622,-47.39
26,8,Juruá,-3.4699,-66.0575
26,8,Jutaí,-2.7382,-66.7589
26,6,Juína,-11.3033,-59.2236
26,8,Kaiser - Araraquara,-21.79,-48.1665
26,8,Kappesberg,-29.4724,-51.4116
26,1,Kiarroz,-28.6338,-49.2327
26,1,Klabin Celulose,-24.2436,-50.7414
26,1,Klabin Correia Pinto (Antiga Celucat),-27.5585,-50.303
26,8,LABORATÓRIOS B BRAUN,-22.8269,-43.0539
26,1,LDC Bioenergia Lagoa da Prata (Antiga Louis Dreyfus Lagoa da Prata),-20.0709,-45.5429
26,1,LDC Bioenergia Leme (Antiga Coinbra - Cresciumal),-22.1575,-47.2496
26,1,LDC Bioenergia Rio Brilhante (Antiga Louis Dreyfus Rio Brilhante),-21.5139,-54.7018
26,8,LEÃO LINHARES,-19.3256,-40.0606
26,8,LONDRINA NORTE SHOPPING,-23.2821,-51.1416
26,8,LOOP,-22.5513,-47.3597
26,8,LUTEPEL INDÚSTRIA E COMÉRCIO DE PAPEL,-22.5956,-48.7869
26,8,Lafarge Brasil SA,-23.9101,-48.8623
26,6,Lageado,-9.8394,-48.2919
26,1,Lago Azul,-17.2536,-47.6785
26,6,Lagoa Grande,-12.1525,-46.8177
26,17,Lagoa do Mato,-4.5891,-37.6377
26,6,Lajeado,-19.0572,-52.5308
26,6,Lajeado do Posto,-26.5439,-52.3694
26,6,Lajes,-6.7819,-48.1508
26,6,Lambedor,-27.1456,-52.8392
26,1,Laminados Triunfo,-10.0085,-67.7578
26,17,Lanchinha,-6.1236,-36.7025
26,8,Lanxess Geração,-23.2081,-47.5661
26,8,Laranjal do Jari,-0.8232,-52.5169
26,1,Laranjeiras,-7.6571,-35.3309
26,8,Latasa Santa Cruz,-22.899,-43.1985
26,8,Laticinios Bela Vista - Governador Valadares,-18.8588,-41.7966
26,8,Laticinios Bela Vista - Maravilha,-26.7746,-53.1925
26,8,Laticínio Scala,-19.8605,-47.4301
26,8,Lavenit Lavanderia,-22.8085,-42.958
26,6,Lavrinhas,-22.5667,-44.8631
26,6,Lençóis,-22.5167,-48.65
26,4,Levorin,-23.459,-46.5235
26,17,Licínio de Almeida,-14.1769,-42.6541
26,6,Limeira,-21.0142,-42.461
26,6,Limoeiro,-22.5781,-46.4194
26,6,Limoeiro (Armando Salles de Oliveira),-21.6253,-47.0094
26,8,Lindoia,-3.139,-58.4345
26,6,Linha Emília,-28.9333,-51.7667
26,6,Linha Granja Velha,-27.4275,-53.5408
26,6,Lobo,-22.1615,-47.9011
26,1,Londra,-23.5243,-48.9287
26,1,Louis Dreyfus Commodities Agroindustrial,-23.6461,-46.6386
26,8,Lubrasil,-22.7213,-47.6397
26,1,Lucélia,-21.5649,-50.9594
26,6,Ludesa,-26.5778,-52.4961
26,4,Luiz Carlos Prestes (Antiga Três Lagoas),-20.741,-51.6541
26,6,Luiz Dias,-22.3688,-45.3516
26,6,Luiz Dias Lins (Antiga Manopla),-8.6514,-35.2175
26,6,Luiz Gonzaga (Itaparica),-9.144,-38.3134
26,4,Luiz Oscar Rodrigues de Melo (Antiga Linhares),-19.5323,-39.7992
26,6,Luiz Queiroz,-22.7169,-47.6517
26,6,Luís Eduardo Magalhães (Lajeado),-9.7572,-48.3714
26,1,Lwarcel,-22.6721,-48.8156
26,1,Lwarcel (Antiga Lençóis Paulista),-22.5402,-48.7994
26,8,Lábrea,-7.2618,-64.7841
26,8,MA AUTOMOTIVE,-22.4157,-44.2808
26,8,MALWEE MALHARIA,-26.4773,-49.1505
26,8,MALWEE POMERODE,-26.706,-49.1632
26,8,MARFRIG SÃO GABRIEL,-30.3703,-54.3373
26,6,MAX-01 (Nova Lacerda),-14.4178,-59.5236
26,1,MB,-20.7787,-48.1919
26,4,MC2 Nova Venécia 2,-4.865,-44.3506
26,8,MENA BARRETO - 1,-22.9505,-43.1778
26,8,MINERAÇÃO BELOCAL - LIM,-20.2706,-45.6231
26,4,MOINHOS SHOPPING,-30.0188,-51.1916
26,8,MONTE CARMO SHOPPING,-19.9407,-44.1091
26,8,MRN UG I (Antiga Porto Trombetas),-1.762,-55.8565
26,8,MRN UG II,-1.762,-55.8565
26,8,MUSASHI DO BRASIL,-7.8562,-34.9002
26,8,MVC Componentes Plásticos,-25.5305,-49.1967
26,8,MWV Rigesa Três Barras,-26.1118,-50.2986
26,6,Macabu,-22.125,-41.8333
26,6,Macaco Branco,-22.7906,-46.8972
26,17,Macacos,-5.412,-35.8483
26,17,Macambira I,-6.0463,-36.5551
26,17,Macambira II,-6.0863,-36.5312
26,17,Macau,-5.0883,-36.5578
26,4,Macaíba (Antiga Termo Toalia),-5.854,-35.3445
26,17,Macaúbas,-12.3512,-42.3385
26,6,Machadinho,-27.5278,-51.7903
26,6,Machado Mineiro,-15.5225,-41.5111
26,6,Madame Denise (Cachoeira do Furado),-19.6428,-43.6911
26,1,Madecal,-26.7717,-51.0044
26,8,Mafrig Pirenópolis,-15.8062,-49.0024
26,6,Mafrás,-27.0367,-49.575
26,6,Malagone,-18.6806,-48.4908
26,17,Malhadinha 1,-3.9466,-41.123
26,6,Mambaí II,-14.6828,-46.2961
26,8,Manacapuru,-3.2913,-60.6075
26,1,Manacá,-18.3495,-49.4084
26,8,Manaquiri,-3.428,-60.4494
26,17,Mandacaru,-8.279,-35.5964
26,1,Mandu,-20.479,-48.4015
26,17,Mangue Seco 1,-5.174,-36.3024
26,17,Mangue Seco 2,-5.1659,-36.3193
26,17,Mangue Seco 3,-5.1856,-36.3603
26,17,Mangue Seco 5,-5.1673,-36.4068
26,8,Manoel Urbano - TECG,-8.8733,-69.2803
26,6,Manso,-14.8744,-55.7858
26,8,Mantecorp IQF,-22.9458,-43.3641
26,17,Mar e Terra,-4.964,-36.9147
26,8,Marabá Gusa Siderúrgica,-5.3646,-49.1083
26,1,Maracajú,-21.3488,-55.4292
26,8,Maracanaú I,-3.873,-38.6165
26,6,Maracanã,-14.3389,-57.6192
26,1,Maracaí,-22.5711,-50.6442
26,8,Marambaia,-4.8613,-42.7816
26,4,Maranhão III,-4.8221,-44.355
26,4,Maranhão IV (Antiga MC2 Joinville),-26.2875,-48.8785
26,4,Maranhão V (Antiga MC2 João Neiva),-19.754,-40.3765
26,6,Maravilha,-21.9897,-42.2972
26,8,Maraã,-1.852,-65.5715
26,6,Marco Baldo,-27.57,-53.7858
26,6,Marechal Mascarenhas de Moraes (Antiga Peixoto),-20.2878,-47.0661
26,8,Marechal Thaumaturgo  BBF Acre,-8.9439,-72.7864
26,8,Marfrig,-30.3324,-54.3105
26,8,Marfrig Alegrete,-29.7566,-55.857
26,8,Marfrig Bagé,-31.3519,-54.0266
26,8,Marfrig Capão,-31.7678,-52.4062
26,8,Marfrig Chupinguaia,-12.5757,-60.8972
26,8,Marfrig Mineiros,-16.639,-49.2653
26,8,Marfrig Paranatinga,-14.4591,-54.03
26,8,Marfrig Paranaíba,-19.5237,-51.3863
26,8,Marfrig Rio Verde,-17.8024,-50.9501
26,8,Marfrig Rolim de Moura,-11.7232,-61.715
26,8,Marfrig Tangará,-14.6282,-57.5403
26,8,Marfrig Tucumã,-6.8424,-51.4236
26,6,Marimbondo,-20.3011,-49.1967
26,6,Mario Fett (Antiga Rio do Peixe),-27.2072,-51.5117
26,1,Marituba,-10.1446,-36.5339
26,17,Maron,-14.1337,-42.6024
26,1,Martins,-9.464,-59.6949
26,6,Martinuv,-12.8217,-60.2958
26,6,Mascarenhas,-19.5005,-40.9185
26,6,Mata Cobra,-28.0978,-53.0142
26,6,Mata Velha,-16.2,-47.1667
26,17,Mataraca,-6.5823,-34.9785
26,8,Mauá,-2.6219,-60.2502
26,8,Mauá Parte II Bloco Distrito,-2.6219,-60.2502
26,8,Mauá Parte III Bloco Iranduba,-3.0911,-60.4709
26,8,Maués,-3.3957,-57.7044
26,17,Mel 02,-4.9467,-36.9641
26,8,Melhoramentos Florestal,-22.7502,-46.085
26,6,Melissa,-24.6,-53.2333
26,6,Mello,-22.0392,-43.7683
26,8,Menu,-21.257,-50.6335
26,8,Mercocítrico,-21.469,-47.3535
26,1,Meridiano,-20.4503,-50.1965
26,6,Mestre,-15.9781,-55.3594
26,2,Metalsider,-19.9669,-44.2034
26,8,Metropolitan Betim Shopping,-19.9583,-44.1509
26,17,Miassaba 3,-5.1278,-36.4536
26,17,Miassaba II,-5.0826,-36.4074
26,1,Miguel Forte,-26.253,-51.0903
26,4,Millennium,-12.694,-38.3145
26,8,Mineração Esperança,-20.1393,-44.1903
26,17,Minuano I,-33.7228,-53.399
26,17,Minuano II,-33.7174,-53.4167
26,8,Miracema Nuodex,-22.9591,-47.0894
26,6,Miradouro,-20.865,-42.355
26,6,Miranda,-18.9122,-48.0414
26,6,Miranda Estância,-13.5542,-59.9353
26,1,Miriri,-6.9447,-35.1299
26,17,Modelo I,-5.4308,-35.8931
26,17,Modelo II,-5.4144,-35.9001
26,4,Modular de Campo Grande (Willian Arjona),-20.439,-54.6365
26,1,Moema,-20.2312,-49.3503
26,6,Mogi-Guaçu,-22.3669,-46.9
26,1,Mogiana Bio-Energia,-20.4724,-47.8749
26,6,Moinho,-24.4181,-54.0271
26,6,Monjolinho (Antiga Alzir dos Santos Antunes),-27.3456,-52.7311
26,6,Monte Alto,-20.775,-46.725
26,6,Monte Belo,-11.9319,-62.1828
26,6,Monte Claro,-29.0303,-51.5206
26,8,Monte Cristo,3.1219,-60.7085
26,8,Monte Dourado,-0.8621,-52.5339
26,6,Monte Serrat,-22.0197,-43.3022
26,1,Monterrey,-21.2063,-49.7316
26,1,Monteverde,-22.2916,-55.0938
26,1,Monções,-20.8512,-50.0799
26,1,Moreno,-21.4779,-47.7607
26,6,Morrinhos,-30.3176,-51.8654
26,17,Morro Branco I,-9.8497,-41.0565
26,17,Morro dos Ventos I,-5.3628,-35.819
26,17,Morro dos Ventos II,-5.3601,-35.8355
26,17,Morro dos Ventos III,-5.3744,-35.8683
26,17,Morro dos Ventos IV,-5.382,-35.8809
26,17,Morro dos Ventos IX,-5.3055,-35.9132
26,17,Morro dos Ventos VI,-5.3437,-35.8783
26,17,Morrão,-14.0885,-42.6827
26,8,Morumbi Corporate Administração,-23.6182,-46.6912
26,8,Morumbi Corporate Torre Alta,-23.6182,-46.6912
26,8,Morumbi Corporate Torre Baixa,-23.6182,-46.6912
26,6,Mosquitão,-16.3419,-51.4375
26,8,Motorola SP,-22.702,-46.9765
26,6,Mucuri,-17.5833,-40.9833
26,17,Mucuripe,-3.7053,-38.4711
26,1,Mumbuca,-22.6597,-50.2072
26,17,Mundaú,-3.1936,-39.3746
26,1,Mundial,-21.194,-51.2062
26,6,Muniz Freire,-20.4667,-41.4667
26,8,Muricy (Antiga Camaçari Muricy I),-12.6566,-38.2655
26,17,Mussambê,-9.8628,-41.0834
26,8,Mutum Paraná,-9.6158,-64.9292
26,1,Müller Destilaria,-21.9143,-47.498
26,8,Müller Pirassununga - Taboão,-22.0056,-47.4406
26,1,N O Bioenergia,-22.3462,-47.3239
26,8,NATURAL PORK,-13.8249,-56.0728
26,1,NG Bioenergia I,-16.9647,-50.4381
26,1,Nardini,-21.1815,-48.6447
26,1,Natureza Limpa,-16.354,-46.8965
26,8,Nazária,-5.3418,-42.8069
26,2,Negro de Fumo,-23.891,-46.4155
26,8,Nestlé,-22.478,-47.4472
26,8,Niely,-22.6952,-43.4558
26,6,Nilo Peçanha,-22.6833,-43.8739
26,6,Ninho da Águia,-22.5,-45.3333
26,8,Nitro Química,-23.4857,-46.4294
26,1,Noble Energia,-20.581,-49.9424
26,1,Noble Energia II,-20.4503,-50.197
26,1,Nobrecel,-22.92,-45.4525
26,6,Noidore,-14.8633,-53.29
26,8,Nordestão 03,-5.811,-35.1971
26,8,Nordestão 07,-5.7896,-35.1941
26,8,Nordestão Nova Parnamirim,-5.8832,-35.2006
26,8,Nordestão Superfacil,-5.8803,-35.2195
26,1,Noroeste Paulista,-20.581,-49.9424
26,8,Norsa Refrigerantes - Maracanaú,-3.8513,-38.5872
26,8,Norsa Refrigerantes - Simões Filho,-12.8324,-38.408
26,8,Norsa Refrigerantes - Suape,-8.3343,-35.0128
26,1,Nortao,-10.189,-59.4345
26,8,Norte,-22.757,-47.1445
26,4,Norte Fluminense,-22.2988,-41.873
26,4,Norte Shopping,-22.899,-43.1985
26,8,Norte Shopping II,-22.881,-43.2753
26,8,North Shopping Jóquei,-3.7817,-38.5182
26,17,Nossa Senhora da Conceição,-13.8957,-42.6769
26,6,Nova Aurora,-18.1428,-48.27
26,6,Nova Avanhandava (Rui Barbosa),-21.1189,-50.2011
26,8,Nova Bandeirantes,-9.8435,-57.8019
26,6,Nova Fátima,-28.0411,-49.13
26,1,Nova Geração,-17.2743,-50.1395
26,8,Nova Maringá,-13.022,-57.0645
26,6,Nova Maurício,-21.4667,-42.85
26,8,Nova Monte Verde,-9.968,-57.4555
26,1,Nova Moreno,-20.8238,-49.7558
26,6,Nova Mutum,-13.5903,-56.2171
26,13,Nova Olinda,-8.213,-42.545
26,6,Nova Ponte,-19.1331,-47.6936
26,1,Nova Tamoio,-21.9082,-48.1044
26,6,Novo Colorado,-13.9848,-57.067
26,8,Novo Data Center - BM&FBOVESPA,-23.4624,-46.8558
26,6,Novo Horizonte,-25.0114,-48.6222
26,8,Novo Paraíso,0.9949,-61.4626
26,8,Novo Remanso,-3.2163,-59.0125
26,8,Nutepa,-29.9668,-51.1844
26,8,Nutribem,-21.0118,-49.4866
26,8,O Boticário - Centro de Distribuição Registro,-24.4718,-47.8189
26,4,O Boticário - Fábrica São José dos Pinhais,-25.4968,-49.1603
26,4,O Boticário Camaçari,-12.7388,-38.3008
26,8,O Boticário São Gonçalo dos Campos,-12.4141,-38.933
26,8,OCRIM,-1.3616,-48.3628
26,4,OESTE CANOAS I,-2.7732,-43.0825
26,8,OXFORD INDUSTRIAL,-26.2125,-49.3926
26,8,Oceano,-23.3525,-46.8674
26,8,Oesp,-23.544,-46.6265
26,8,Oiapoque,3.8384,-51.8266
26,8,Oiapoque COEN,3.6063,-51.8411
26,6,Oliveira,-20.7667,-44.6833
26,6,Ombreiras,-15.1,-58.7333
26,4,Operadora São Paulo Renaissance,-23.544,-46.6265
26,6,Oriental,-9.0004,-36.1129
26,6,Ormeo Junqueira Botelho (Antiga Cachoeira Encoberta),-21.0897,-42.3425
26,8,Orsa,-24.117,-48.8945
26,17,Osório 2,-29.9445,-50.2516
